id,"cod_jud","denumire_uat","nr_sv","sediu",lat,long,"adresa"
1,"AB","Alba Iulia","AB1","Centrul de zi pentru persoane vârstnice",46.0732440000,23.5879454100,"UAT: MUNICIPIUL ALBA IULIA, Localitate: ALBA IULIA, Artera: Strada Libertăţii, Nr: 21"
2,"AB","Alba Iulia","AB2","Şcoala gimnazială „Vasile Goldiş",46.0736873300,23.5831811200,"UAT: MUNICIPIUL ALBA IULIA, Localitate: ALBA IULIA, Artera: Strada Călăraşilor, Nr: 2"
3,"AB","Alba Iulia","AB4","Şcoală gimnazială „Avram Iancu",46.0622295200,23.5787374500,"UAT: MUNICIPIUL ALBA IULIA, Localitate: ALBA IULIA, Artera: Strada Moldovei, Nr: 2"
4,"AB","Alba Iulia","AB3","Şcoala gimnazială „Vasile Goldiş",46.0736873300,23.5831811200,"UAT: MUNICIPIUL ALBA IULIA, Localitate: ALBA IULIA, Artera: Strada Călăraşilor, Nr: 2"
5,"AB","Alba Iulia","AB6","Casa de cultură a studenţilor",46.0700268000,23.5807569000,"UAT: MUNICIPIUL ALBA IULIA, Localitate: ALBA IULIA, Nr: 1"
6,"AB","Alba Iulia","AB5","Şcoală gimnazială „Avram Iancu",46.0622295200,23.5787374500,"UAT: MUNICIPIUL ALBA IULIA, Localitate: ALBA IULIA, Artera: Strada Moldovei, Nr: 2"
7,"AB","Alba Iulia","AB7","Colegiul EconomicDionisie Pop Marţian",46.0657964800,23.5776113600,"UAT: MUNICIPIUL ALBA IULIA, Localitate: ALBA IULIA, Artera: Strada Octavian Goga (Bulevardul Încoronării, Bulevardul Octavian Goga), Nr: 11"
8,"AB","Alba Iulia","AB8","Colegiul Naţional „Horea Cloşca şi Crişan",46.0668403100,23.5637232500,"UAT: MUNICIPIUL ALBA IULIA, Localitate: ALBA IULIA, Artera: Bulevardul 1 Decembrie 1918, Nr: 11"
9,"AB","Alba Iulia","AB9","Colegiul Naţional „Horea Cloşca şi Crişan",46.0668403100,23.5637232500,"UAT: MUNICIPIUL ALBA IULIA, Localitate: ALBA IULIA, Artera: Bulevardul 1 Decembrie 1918, Nr: 11"
10,"AB","Alba Iulia","AB10","Colegiul Naţional „Horea Cloşca şi Crişan",46.0668403100,23.5637232500,"UAT: MUNICIPIUL ALBA IULIA, Localitate: ALBA IULIA, Artera: Bulevardul 1 Decembrie 1918, Nr: 11"
11,"AB","Alba Iulia","AB11","Colegiul Naţional „Horea Cloşca şi Crişan",46.0668403100,23.5637232500,"UAT: MUNICIPIUL ALBA IULIA, Localitate: ALBA IULIA, Artera: Bulevardul 1 Decembrie 1918, Nr: 11"
12,"AB","Alba Iulia","AB13","Colegiul Tehnic „Apulum",46.0657417900,23.5612421800,"UAT: MUNICIPIUL ALBA IULIA, Localitate: ALBA IULIA, Nr: 2"
13,"AB","Alba Iulia","AB15","Grădiniţa cu program prelungit nr.9",46.0673625500,23.5616885000,"UAT: MUNICIPIUL ALBA IULIA, Localitate: ALBA IULIA, Artera: Strada Vasile Goldiş (Strada Narciselor), Nr: 7"
14,"AB","Alba Iulia","AB14","Colegiul Tehnic „Apulum",46.0657417900,23.5612421800,"UAT: MUNICIPIUL ALBA IULIA, Localitate: ALBA IULIA, Nr: 2"
15,"AB","Gârboviţa","AB71","Fosta Şcoală Generală Gîrboviţa",46.2813840000,23.6400660100,"UAT: MUNICIPIUL AIUD, Localitate: GÂRBOVIŢA, Nr: 66"
16,"AB","Blaj","AB75","Piaţa Agroalimentară",46.1749483200,23.9085270200,"UAT: MUNICIPIUL BLAJ, Localitate: BLAJ, Artera: Strada Gării, Nr: FN"
17,"DJ","Craiova","DJ4","LICEUL CU PROGRAM SPORTIV PETRACHE TRIŞCU",44.3126245900,23.8045857100,"UAT: MUNICIPIUL CRAIOVA, Localitate: CRAIOVA, Artera: Strada Tudor Vladimirescu, Nr: 9"
18,"DJ","Craiova","DJ6","LICEUL TEORETIC TRAIAN VUIA",44.3094070400,23.8121926100,"UAT: MUNICIPIUL CRAIOVA, Localitate: CRAIOVA, Artera: Strada Rovinari, Nr: 1A"
19,"DJ","Craiova","DJ7","LICEUL TEORETIC TRAIAN VUIA",44.3094070400,23.8121926100,"UAT: MUNICIPIUL CRAIOVA, Localitate: CRAIOVA, Artera: Strada Rovinari, Nr: 1A"
20,"DJ","Craiova","DJ5","LICEUL CU PROGRAM SPORTIV PETRACHE TRIȘCU",44.3126245900,23.8045857100,"UAT: MUNICIPIUL CRAIOVA, Localitate: CRAIOVA, Artera: Strada Tudor Vladimirescu, Nr: 9"
21,"DJ","Craiova","DJ8","UNIVERSITATEA DIN CRAIOVA",44.3187500000,23.8007357600,"UAT: MUNICIPIUL CRAIOVA, Localitate: CRAIOVA, Artera: Strada Alexandru Ioan Cuza, Nr: 13"
22,"DJ","Craiova","DJ9","UNIVERSITATEA DIN CRAIOVA",44.3187500000,23.8007357600,"UAT: MUNICIPIUL CRAIOVA, Localitate: CRAIOVA, Artera: Strada Alexandru Ioan Cuza, Nr: 13"
23,"DJ","Craiova","DJ10","UNIVERSITATEA DIN CRAIOVA",44.3187500000,23.8007357600,"UAT: MUNICIPIUL CRAIOVA, Localitate: CRAIOVA, Artera: Strada Alexandru Ioan Cuza, Nr: 13"
24,"DJ","Craiova","DJ12","ŞCOALA GIMNAZIALĂ MIRCEA ELIADE",44.3134941700,23.8178078300,"UAT: MUNICIPIUL CRAIOVA, Localitate: CRAIOVA, Artera: Strada Cloşca, Nr: 1"
25,"DJ","Craiova","DJ13","GRADINIŢA CU PROGRAM PRELUNGIT DUMBRAVA MINUNATA ( FOSTĂ NR.37)",44.3145295100,23.8209887100,"UAT: MUNICIPIUL CRAIOVA, Localitate: CRAIOVA, Artera: Strada Putnei, Nr: 50"
26,"DJ","Craiova","DJ14","GRADINIŢA CU PROGRAM PRELUNGIT DUMBRAVA MINUNATA(FOSTĂ NR.37)",44.3145295100,23.8209887100,"UAT: MUNICIPIUL CRAIOVA, Localitate: CRAIOVA, Artera: Strada Putnei, Nr: 50"
27,"DJ","Craiova","DJ15","ŞCOALA GIMNAZIALĂ MIHAI EMINESCU(FOSTA NR.37",44.3124741500,23.8386841100,"UAT: MUNICIPIUL CRAIOVA, Localitate: CRAIOVA, Artera: Strada Ion Ţuculescu, Nr: 3"
28,"DJ","Craiova","DJ16","ŞCOALA GIMNAZIALĂ MIHAI EMINESCU(FOSTA NR.37)",44.3124741500,23.8386841100,"UAT: MUNICIPIUL CRAIOVA, Localitate: CRAIOVA, Artera: Strada Ion Ţuculescu, Nr: 3"
29,"DJ","Craiova","DJ17","ŞCOALA GIMNAZIALĂ MIHAI EMINESCU(FOSTA NR. 37)",44.3124741500,23.8386841100,"UAT: MUNICIPIUL CRAIOVA, Localitate: CRAIOVA, Artera: Strada Ion Ţuculescu, Nr: 3"
30,"DJ","Craiova","DJ18","GRADINIŢA CU PROGRAM NORMAL PRICHINDEL(FOSTA NR. 55) – STRUCTURĂ A ŞCOLII GIMNAZIALE MIHAI EMINESCU (FOSTA NR.37))",44.3120427700,23.8403339900,"UAT: MUNICIPIUL CRAIOVA, Localitate: CRAIOVA, Artera: Strada Ion Ţuculescu, Nr: 2"
31,"DJ","Padea","DJ344","SCOALA PRIMARA PADEA",44.0228649500,23.8661909500,"UAT: DRĂNIC, Localitate: PADEA, Artera: Strada Principală, Nr: 72"
32,"CT","Constanţa","CT68","ŞCOALA GIMNAZIALA NR. 18 JEAN BART",44.1548910500,28.6140115900,"UAT: MUNICIPIUL CONSTANŢA, Localitate: CONSTANŢA, Artera: Strada Ioan Ursu, Nr: 51A"
33,"CT","Mangalia","CT221","Școala Generală Nr.2",43.8111230800,28.5764536500,"UAT: MUNICIPIUL MANGALIA, Localitate: MANGALIA, Artera: Strada Teofil Sauciuc-Săveanu (Strada 23 August), Nr: 22"
34,"CT","Mangalia","CT223","Sediu s.c. ECO GOLD S.A.",43.8141891900,28.5680327200,"UAT: MUNICIPIUL MANGALIA, Localitate: MANGALIA, Artera: Strada Gheorghe Asachi, Nr: 2"
35,"CT","Mangalia","CT220","Școala Generală Nr.1",43.8190197200,28.5723294900,"UAT: MUNICIPIUL MANGALIA, Localitate: MANGALIA, Artera: Strada Matei Basarab, Nr: 42"
36,"CT","Mangalia","CT224","Grădinița Nr. 4",43.8190197200,28.5723294900,"UAT: MUNICIPIUL MANGALIA, Localitate: MANGALIA, Artera: Strada Matei Basarab, Nr: 44"
37,"CT","Mangalia","CT225","Fundația Pentru Tineret Mangalia",43.8174988500,28.5824603400,"UAT: MUNICIPIUL MANGALIA, Localitate: MANGALIA, Artera: Şoseaua Constanţei (Strada Oltului), Nr: 43"
38,"CT","Mangalia","CT226","Fundatia pentru Tineret",43.8174988500,28.5824603400,"UAT: MUNICIPIUL MANGALIA, Localitate: MANGALIA, Artera: Şoseaua Constanţei (Strada Oltului), Nr: 29B"
39,"CT","Mangalia","CT227","Școala Generală nr.5",43.8157818500,28.5824508600,"UAT: MUNICIPIUL MANGALIA, Localitate: MANGALIA, Artera: Şoseaua Constanţei (Strada Oltului), Nr: 27"
40,"CT","Mangalia","CT211","Casa Municipală de Cultură",43.8112966300,28.5831218800,"UAT: MUNICIPIUL MANGALIA, Localitate: MANGALIA, Artera: Şoseaua Constanţei (Strada Oltului), Nr: 5"
41,"CT","Mangalia","CT212","Grup Școlar Economic",43.8120324100,28.5806329700,"UAT: MUNICIPIUL MANGALIA, Localitate: MANGALIA, Artera: Strada Oituz, Nr: 18-20"
42,"CT","Mangalia","CT222","Școala Generală Nr.2",43.8111230800,28.5764536500,"UAT: MUNICIPIUL MANGALIA, Localitate: MANGALIA, Artera: Strada Teofil Sauciuc-Săveanu (Strada 23 August), Nr: 22"
43,"CT","Mangalia","CT234","Liceul Callatis",43.8242809000,28.5841984800,"UAT: MUNICIPIUL MANGALIA, Localitate: MANGALIA, Artera: Strada Rozelor, Nr: 42"
44,"CT","Mangalia","CT219","Școala Generală Nr.1",43.8190197200,28.5723294900,"UAT: MUNICIPIUL MANGALIA, Localitate: MANGALIA, Artera: Strada Matei Basarab, Nr: 42"
45,"CT","Mangalia","CT213","Liceul Tehnologic Ion Bănescu Mangalia",43.8040502900,28.5754387200,"UAT: MUNICIPIUL MANGALIA, Localitate: MANGALIA, Artera: Strada Negru Vodă, Nr: 19"
46,"DB","Malurile","DB114","ȘCOALA GIMNAZIALĂ MALURI",45.0589457000,25.4738340100,"UAT: ORAŞ PUCIOASA, Localitate: MALURILE, Nr: 69"
47,"DB","Titu","DB129","Liceul Teoretic IANCU .C.Visarion",44.6589713900,25.5716278700,"UAT: ORAŞ TITU, Localitate: TITU, Nr: 49"
48,"BV","Săcele","BV240","Şcoala Gimnazială nr.5 Corpul A",45.6014354700,25.7417715000,"UAT: MUNICIPIUL SĂCELE, Localitate: SĂCELE, Artera: Strada Barajului, Nr: 49"
49,"BV","Săcele","BV241","Şcoala Gimnazială nr.5 Corpul A",45.6014354700,25.7417715000,"UAT: MUNICIPIUL SĂCELE, Localitate: SĂCELE, Artera: Strada Barajului, Nr: 49"
50,"BV","Ghimbav","BV244","ŞCOALA GENERALĂ GHIMBAV CLASELE V-VIII",45.6635912400,25.5083046000,"UAT: ORAŞ GHIMBAV, Localitate: GHIMBAV, Artera: Strada Pieţii, Nr: 70"
51,"BV","Ghimbav","BV245","ŞCOALA GENERALĂ GHIMBAV CLASELE I-IV",45.6643044300,25.5043023800,"UAT: ORAŞ GHIMBAV, Localitate: GHIMBAV, Artera: Strada Şcolii, Nr: 258"
52,"BV","Predeal","BV247","LICEUL TEORETIC MIHAIL SAULESCU",45.4974570100,25.5720047400,"UAT: ORAŞ PREDEAL, Localitate: PREDEAL, Artera: Bulevardul Mihail Săulescu (Bulevardul Gheorghe Gheorghiu Dej)"
53,"BV","Timişu De Jos","BV250","GRADINITA CU PROGRAM NORMAL TIMISUL DE JOS",45.5847847400,25.6240000100,"UAT: ORAŞ PREDEAL, Localitate: TIMIŞU DE JOS, Nr: 16"
54,"BV","Râşnov","BV260","Grup Școlar Industrial Râșnov",45.5934908000,25.4599116000,"UAT: ORAŞ RÂŞNOV, Localitate: RÂŞNOV, Artera: Strada Republicii, Nr: 29"
55,"BV","Râşnov","BV256","Grădiniţa nr.1",45.5902145900,25.4639521400,"UAT: ORAŞ RÂŞNOV, Localitate: RÂŞNOV, Artera: Strada Câmpului (Strada Cîmpului), Nr: 1, Bl: 5"
56,"BV","Râşnov","BV257","Școala Generală nr. 2 Râșnov",45.5920981100,25.4668748300,"UAT: ORAŞ RÂŞNOV, Localitate: RÂŞNOV, Artera: Strada Izvor (Strada Izvorului), Nr: 8"
57,"BV","Râşnov","BV258","Școala Generală nr. 2 Râșnov",45.5920981100,25.4668748300,"UAT: ORAŞ RÂŞNOV, Localitate: RÂŞNOV, Artera: Strada Izvor (Strada Izvorului), Nr: 8"
58,"BV","Râşnov","BV259","Școala Generală nr. 2 Râșnov",45.5920981100,25.4668748300,"UAT: ORAŞ RÂŞNOV, Localitate: RÂŞNOV, Artera: Strada Izvor (Strada Izvorului), Nr: 8"
59,"BV","Râşnov","BV261","Grup Școlar Industrial Râșnov",45.5933315800,25.4600051700,"UAT: ORAŞ RÂŞNOV, Localitate: RÂŞNOV, Artera: Strada Republicii, Nr: 29"
60,"BV","Râşnov","BV262","Grup Școlar Industrial Râșnov",45.5933315800,25.4600051700,"UAT: ORAŞ RÂŞNOV, Localitate: RÂŞNOV, Artera: Strada Republicii, Nr: 29"
61,"BV","Rupea","BV264","Casa Oraseneasca de Cultura",46.0379642000,25.2208787100,"UAT: ORAŞ RUPEA, Localitate: RUPEA, Artera: Strada Republicii, Nr: 124"
62,"BV","Bod","BV297","Școala Gimnazială Bod Sat",45.7636632200,25.6392159900,"UAT: BOD, Localitate: BOD, Artera: Strada Braşovului, Nr: 343"
63,"BV","Bod","BV298","Căminul cultural",45.7646285300,25.6424103200,"UAT: BOD, Localitate: BOD, Artera: Strada T. Vladimirescu, Nr: 263"
64,"BV","Colonia Bod","BV299","Grădiniţa Bod Colonie",45.7550240300,25.5972996900,"UAT: BOD, Localitate: COLONIA BOD, Artera: Strada Fabricii, Nr: 1"
65,"GJ","Târgu Jiu","GJ47","COLEGIUL TEHNIC GENERAL GHEORGHE MAGHERU",45.0533199800,23.2794281000,"UAT: MUNICIPIUL TÂRGU JIU, Localitate: TÂRGU JIU, Artera: Strada Lt. col. Dumitru Petrescu (Cartierul Debarcader), Nr: 18"
66,"GJ","Târgu Jiu","GJ37","LICEUL DE ARTE CONSTANTIN BRĂILOIU",45.0436284200,23.2780815000,"UAT: MUNICIPIUL TÂRGU JIU, Localitate: TÂRGU JIU, Artera: Strada Griviţei, Nr: 34"
67,"GJ","Târgu Jiu","GJ43","ŞCOALA GENERALĂ ECATERINA TEODOROIU",45.0511969900,23.2822077100,"UAT: MUNICIPIUL TÂRGU JIU, Localitate: TÂRGU JIU, Artera: Strada Ecaterina Teodoroiu, Nr: 41"
68,"GJ","Târgu Jiu","GJ5","ŞCOALA GIMNAZIALĂ CONSTANTIN SĂVOIU",45.0374851900,23.2727998800,"UAT: MUNICIPIUL TÂRGU JIU, Localitate: TÂRGU JIU, Artera: Strada Unirii, Nr: 9"
69,"GJ","Târgu Jiu","GJ56","COLEGIUL TEHNIC HENRI COANDĂ",45.0570550900,23.2877606700,"UAT: MUNICIPIUL TÂRGU JIU, Localitate: TÂRGU JIU, Artera: Strada Islaz, Nr: 2"
70,"GJ","Târgu Jiu","GJ52","ŞCOALA GIMNAZIALĂ VOIEVOD LITOVOI",45.0362758800,23.2549339200,"UAT: MUNICIPIUL TÂRGU JIU, Localitate: TÂRGU JIU, Artera: Calea Severinului (Strada Mehedinţi), Nr: 86"
71,"GJ","Târgu Jiu","GJ16","PALATUL COPIILOR",45.0362963800,23.2738431100,"UAT: MUNICIPIUL TÂRGU JIU, Localitate: TÂRGU JIU, Artera: Strada Siretului (Cartierul Unirii-Siret), Nr: 20"
72,"GJ","Târgu Jiu","GJ17","LICEUL TEOLOGIC",45.0310836400,23.2783136600,"UAT: MUNICIPIUL TÂRGU JIU, Localitate: TÂRGU JIU, Artera: Strada Alexandru Ioan Cuza, Nr: 23"
73,"GJ","Târgu Jiu","GJ18","LICEUL TEOLOGIC",45.0310836400,23.2783136600,"UAT: MUNICIPIUL TÂRGU JIU, Localitate: TÂRGU JIU, Artera: Strada Alexandru Ioan Cuza, Nr: 23"
74,"GJ","Târgu Jiu","GJ23","ŞCOALA GIMNAZIALĂ POMPILIU MARCEA",45.0261659500,23.2744017700,"UAT: MUNICIPIUL TÂRGU JIU, Localitate: TÂRGU JIU, Artera: Strada Mioriţei, Nr: 4"
75,"GJ","Târgu Jiu","GJ14","COLEGIUL NAŢIONAL SPIRU HARET",45.0278452400,23.2785033300,"UAT: MUNICIPIUL TÂRGU JIU, Localitate: TÂRGU JIU, Artera: Strada 1 Decembrie 1918, Nr: 106"
76,"GJ","Târgu Jiu","GJ25","ŞCOALA GIMNAZIALĂ CONSTANTIN BRÂNCUŞI",45.0238009000,23.2765329100,"UAT: MUNICIPIUL TÂRGU JIU, Localitate: TÂRGU JIU, Artera: Strada Liviu Rebreanu, Nr: 1"
77,"GJ","Târgu Jiu","GJ15","COLEGIUL NAŢIONAL SPIRU HARET",45.0278452400,23.2785033300,"UAT: MUNICIPIUL TÂRGU JIU, Localitate: TÂRGU JIU, Artera: Strada 1 Decembrie 1918, Nr: 106"
78,"GJ","Târgu Jiu","GJ24","ŞCOALA GIMNAZIALĂ CONSTANTIN BRÂNCUŞI",45.0238009000,23.2765329100,"UAT: MUNICIPIUL TÂRGU JIU, Localitate: TÂRGU JIU, Artera: Strada Liviu Rebreanu, Nr: 1"
79,"GJ","Tismana","GJ102","GRADINITA CU PROGRAM NORMAL TISMANA",45.0500756000,22.9465923300,"UAT: ORAŞ TISMANA, Localitate: TISMANA, Nr: 518"
80,"GJ","Celei","GJ104","SCOALA GENERALA CELEI",45.0083734600,22.9250682100,"UAT: ORAŞ TISMANA, Localitate: CELEI, Nr: 215"
81,"CS","Slatina-Nera","CS316","Grădinița cu Program Normal Slatina-Nera",44.9152164900,21.6863744100,"UAT: SASCA MONTANĂ, Localitate: SLATINA-NERA"
82,"CS","Sicheviţa","CS320","CAMIN CULTURAL SICHEVITA",44.6958544700,21.8434973600,"UAT: SICHEVIŢA, Localitate: SICHEVIŢA, Nr: 395"
83,"CS","Gornea","CS319","Grădiniţa cu Program Normal Gornea",44.6810831000,21.8549989900,"UAT: SICHEVIŢA, Localitate: GORNEA, Nr: 79"
84,"CS","Liborajdea","CS321","CENTRU DE INFORMARE TURISTICA COMUNA SICHEVITA",44.6658386400,21.7767756000,"UAT: SICHEVIŢA, Localitate: LIBORAJDEA"
85,"CS","Slatina-Timiş","CS322","Scoala Primara SLATINA -TIMIS",45.2596759200,22.2827840000,"UAT: SLATINA-TIMIŞ, Localitate: SLATINA-TIMIŞ, Nr: 264 A"
86,"CS","Ilova","CS323","SCOALA PRIMARA ILOVA",45.2772792800,22.3404073500,"UAT: SLATINA-TIMIŞ, Localitate: ILOVA"
87,"CS","Sadova Nouă","CS324","SCOALA PRIMARA SADOVA-NOUA",45.2570131700,22.3434639400,"UAT: SLATINA-TIMIŞ, Localitate: SADOVA NOUĂ"
88,"CS","Sadova Veche","CS325","GRADINITA CU PROGRAM NORMAL SADOVA-VECHE",45.2470909000,22.2982190100,"UAT: SLATINA-TIMIŞ, Localitate: SADOVA VECHE"
89,"CS","Socol","CS326","Şcoala Gimnazială Sf. Sava - SOCOL",44.8601998000,21.3707183300,"UAT: SOCOL, Localitate: SOCOL, Nr: 80"
90,"CS","Baziaş","CS327","Căminul Cultural - BAZIAȘ",44.8158226400,21.3897540800,"UAT: SOCOL, Localitate: BAZIAŞ, Nr: 43"
91,"CS","Câmpia","CS328","Şcoala Primară CÎMPIA",44.8621239000,21.4119153100,"UAT: SOCOL, Localitate: CÂMPIA, Nr: 121"
92,"CS","Zlatiţa","CS329","Şcoala Gimnazială- ZLATITA",44.8646925200,21.4689872400,"UAT: SOCOL, Localitate: ZLATIŢA, Nr: 212"
93,"CS","ŞOpotu Nou","CS330","Centrul local de informare turistică",44.8160020000,21.8617360000,"UAT: ŞOPOTU NOU, Localitate: ŞOPOTU NOU, Nr: 123"
94,"CS","Ravensca","CS331","Căminul Cultural-RAVENSCA",44.7740759300,21.9143769500,"UAT: ŞOPOTU NOU, Localitate: RAVENSCA, Nr: 38"
95,"CS","Răchita","CS332","Şcoala Primara - RACHITA",44.7602492300,21.8736272400,"UAT: ŞOPOTU NOU, Localitate: RĂCHITA, Nr: 3"
96,"CS","Stăncilova","CS333","CAMININUL CULTURAL-STANCILOVA DE JOS",44.8164216000,21.8125199100,"UAT: ŞOPOTU NOU, Localitate: STĂNCILOVA, Nr: 39"
97,"CS","Stăncilova","CS334","CAMINNUL CULTURAL STANCILOVA DE SUS",44.8256063500,21.8177169800,"UAT: ŞOPOTU NOU, Localitate: STĂNCILOVA, Nr: 94"
98,"CS","Valea Roşie","CS335","Căminul Cultural-VALEA ROSIE",44.7961769000,21.8264041100,"UAT: ŞOPOTU NOU, Localitate: VALEA ROŞIE, Nr: 9"
99,"CS","Târnova","CS336","Şcoala Gimnazială TÎRNOVA",45.3390743500,22.0023354400,"UAT: TÂRNOVA, Localitate: TÂRNOVA, Nr: 1"
100,"BH","Lugaşu De Jos","BH438","CĂMINUL CULTURAL LUGAȘU DE JOS",47.0633894100,22.3450633600,"UAT: LUGAŞU DE JOS, Localitate: LUGAŞU DE JOS, Nr: 182"
101,"BH","Lugaşu De Sus","BH439","CĂMINUL CULTURAL LUGAȘU DE SUS",47.0782662600,22.3570203500,"UAT: LUGAŞU DE JOS, Localitate: LUGAŞU DE SUS, Nr: 125"
102,"BH","Lunca","BH441","CĂMINUL CULTURAL LUNCA",46.5204245000,22.4637593100,"UAT: LUNCA, Localitate: LUNCA, Nr: 2"
103,"BH","Briheni","BH442","CĂMINUL CULTURAL BRIHENI",46.4997270600,22.4026461200,"UAT: LUNCA, Localitate: BRIHENI, Nr: 37"
104,"BH","Hotărel","BH443","CĂMINUL CULTURAL HOTĂREL",46.5328068500,22.4386889800,"UAT: LUNCA, Localitate: HOTĂREL, Nr: 33"
105,"BH","Sârbeşti","BH445","CAMINUL CULTURAL SIRBESTI",46.5015961200,22.4847140800,"UAT: LUNCA, Localitate: SÂRBEŞTI, Nr: 81"
106,"BH","Seghişte","BH444","CĂMINUL CULTURAL SEGHIŞTE",46.5387589700,22.4878541700,"UAT: LUNCA, Localitate: SEGHIŞTE, Nr: 69"
107,"BH","ŞUştiu","BH446","CĂMINUL CULTURAL ŞUŞTIU",46.4999407700,22.4561764000,"UAT: LUNCA, Localitate: ŞUŞTIU, Nr: 42"
108,"BH","Mădăras","BH448","ȘCOALA CU CLASELE I.-VIII",46.8281893000,21.6776066300,"UAT: MĂDĂRAS, Localitate: MĂDĂRAS, Nr: 223"
109,"BH","Homorog","BH449","FOSTA ȘCOALĂ CU CLASELE I.-IV",46.8346778500,21.7468596800,"UAT: MĂDĂRAS, Localitate: HOMOROG, Nr: 50"
110,"BH","Ianoşda","BH450","ŞCOALA CU CLASELE I-VIII",46.8392392600,21.8024172800,"UAT: MĂDĂRAS, Localitate: IANOŞDA, Nr: 72/A"
111,"BH","Marţihaz","BH447","CĂMINUL CULTURAL",46.8741580600,21.6470500700,"UAT: MĂDĂRAS, Localitate: MARŢIHAZ, Nr: 1"
112,"BH","Măgeşti","BH451","PRIMĂRIA MĂGEŞTI",47.0119165000,22.4457496000,"UAT: MĂGEŞTI, Localitate: MĂGEŞTI, Nr: 9"
113,"BH","Butani","BH452","ŞCOALA GENERALĂ",47.0139447200,22.4378347400,"UAT: MĂGEŞTI, Localitate: BUTANI, Nr: 28"
114,"BH","Cacuciu Nou","BH454","ŞCOALA GENERALĂ",47.0276222700,22.4740282500,"UAT: MĂGEŞTI, Localitate: CACUCIU NOU, Nr: 55"
115,"BH","Dobricioneşti","BH457","CĂMIN CULTURAL",46.9945601000,22.4764184100,"UAT: MĂGEŞTI, Localitate: DOBRICIONEŞTI, Nr: 98/A"
116,"BH","Gălăşeni","BH456","ŞCOALA GENERALĂ",46.9876769700,22.4320552500,"UAT: MĂGEŞTI, Localitate: GĂLĂŞENI, Nr: 23"
117,"BH","Josani","BH455","ŞCOALA GENERALĂ",47.0005437600,22.4600441800,"UAT: MĂGEŞTI, Localitate: JOSANI, Nr: 52"
118,"BH","Ortiteag","BH453","ŞCOALA GENERALĂ",47.0320380700,22.4420427800,"UAT: MĂGEŞTI, Localitate: ORTITEAG, Nr: 157"
119,"BH","Nojorid","BH459","ȘCOALA GIMNAZIALĂ NR.1",46.9938752000,21.8822325000,"UAT: NOJORID, Localitate: NOJORID, Nr: 185"
120,"BH","Chişcău","BH482","ȘCOALA GIMAZIALĂ NR.2 CHIȘCĂU",46.5590854500,22.5529486700,"UAT: PIETROASA, Localitate: CHIŞCĂU, Nr: 66/A"
121,"BH","Cociuba Mică","BH481","ȘCOALA PRIMARĂ NR.2 COCIUBA MICĂ",46.5976304300,22.5344365500,"UAT: PIETROASA, Localitate: COCIUBA MICĂ, Nr: 67/A"
122,"AG","Dobreşti","AG334","Cămin Cultural Dobreşti",44.9653040500,25.1284131100,"UAT: DOBREŞTI, Localitate: DOBREŞTI"
123,"AG","Fureşti","AG335","Şcoala Gen. I-IV Fureşti",44.9327421900,25.1069174300,"UAT: DOBREŞTI, Localitate: FUREŞTI"
124,"AG","Domneşti","AG336","Caminul Cultural Petre Ionescu Muscel",45.2067483300,24.8408134700,"UAT: DOMNEŞTI, Localitate: DOMNEŞTI, Nr: 3"
125,"AG","Domneşti","AG337","Caminul Cultural Petre Ionescu Muscel -",45.2067483300,24.8408134700,"UAT: DOMNEŞTI, Localitate: DOMNEŞTI, Nr: 3"
126,"AG","Dragoslavele","AG338","Şcoala Gimnazială Iosif Catrinescu cls. V-VIII",45.3493663000,25.1629050900,"UAT: DRAGOSLAVELE, Localitate: DRAGOSLAVELE"
127,"AG","Dragoslavele","AG339","ŞcoalaPrimară Dragoslavele",45.3436491600,25.1643840100,"UAT: DRAGOSLAVELE, Localitate: DRAGOSLAVELE"
128,"AG","Valea Hotarului","AG340","Şcoala Valea Hotarului",45.3204991900,25.1693477500,"UAT: DRAGOSLAVELE, Localitate: VALEA HOTARULUI"
129,"AG","Drăganu-Olteni","AG341","Cămin Cultural Drăganu",44.9395851200,24.7043688900,"UAT: DRĂGANU, Localitate: DRĂGANU-OLTENI"
130,"AG","Godeni","AG342","ȘCOALA GODENI, nr.26",45.2270086700,24.9837429900,"UAT: GODENI, Localitate: GODENI, Nr: 26"
131,"AG","Coteşti","AG343","ŞCOALA GIMNAZIALĂ COTEȘTI-GODENI, nr.198",45.1900399100,24.9717059200,"UAT: GODENI, Localitate: COTEŞTI, Nr: 198"
132,"AG","Hârseşti","AG344","Căminul Cultural Hârseşti",44.5215558600,24.7822000800,"UAT: HÂRSEȘTI, Localitate: HÂRSEŞTI"
133,"AG","Martalogi","AG345","Şcoala Martalogi",44.5049583000,24.7881483100,"UAT: HÂRSEȘTI, Localitate: MARTALOGI"
134,"AG","Hârtieşti","AG346","Cămin Cultural Hîrtieşti",45.1227483900,25.1022820800,"UAT: HÂRTIEŞTI, Localitate: HÂRTIEŞTI"
135,"AG","Dealu","AG347","Primăria Veche Hîrtieşti",45.1205171300,25.1012747900,"UAT: HÂRTIEŞTI, Localitate: DEALU"
136,"AG","Lespezi","AG349","Centrul de zi Lespezi",45.1384892200,25.1188936500,"UAT: HÂRTIEŞTI, Localitate: LESPEZI"
137,"AG","Lucieni","AG348","Şcoala Lucieni",45.1351984600,25.1125799100,"UAT: HÂRTIEŞTI, Localitate: LUCIENI"
138,"AG","Izvoru","AG350","Şcoala Gimnazială Elena Davila Perticari",44.4938888200,25.0637610200,"UAT: IZVORU, Localitate: IZVORU, Artera: Strada Principală, Nr: 753"
139,"AG","Izvoru","AG351","Şcoala Gimnazială Elena Davila Perticari",44.4938888200,25.0637610200,"UAT: IZVORU, Localitate: IZVORU, Artera: Strada Principală, Nr: 753"
140,"AG","Leordeni","AG352","PRIMĂRIE",44.7918064700,25.1282177400,"UAT: LEORDENI, Localitate: LEORDENI"
141,"AG","Budişteni","AG353","CENTRUL CULTURAL MULTIFUNCȚIONAL BUDIŞTENI",44.8085902400,25.1543069900,"UAT: LEORDENI, Localitate: BUDIŞTENI"
142,"AG","Ciulniţa","AG355","ŞCOALA CIULNIŢA",44.7875321900,25.1466444600,"UAT: LEORDENI, Localitate: CIULNIŢA"
143,"AB","Petrisat","AB90","Şcoala Primară Petrisat",46.1924391400,23.9170217600,"UAT: MUNICIPIUL BLAJ, Localitate: PETRISAT, Nr: 24"
144,"AB","Alba Iulia","AB16","Seminarul Teologic Ortodox „Sfântul Simion Ştefan",46.0717211700,23.5524702700,"UAT: MUNICIPIUL ALBA IULIA, Localitate: ALBA IULIA, Artera: Bulevardul Transilvaniei (Bulevardul Transilvania), Nr: 36A"
145,"AB","Alba Iulia","AB17","Şcoala gimnazială„Ion Agârbiceanu",46.0685194200,23.5606695900,"UAT: MUNICIPIUL ALBA IULIA, Localitate: ALBA IULIA, Artera: Strada Vasile Goldiş (Strada Narciselor), Nr: 14"
146,"AB","Alba Iulia","AB18","Şcoala gimnazială„Ion Agârbiceanu",46.0685194200,23.5606695900,"UAT: MUNICIPIUL ALBA IULIA, Localitate: ALBA IULIA, Artera: Strada Vasile Goldiş (Strada Narciselor), Nr: 14"
147,"AB","Alba Iulia","AB19","Grădiniţa cu program prelungit nr.11",46.0687788000,23.5592322100,"UAT: MUNICIPIUL ALBA IULIA, Localitate: ALBA IULIA, Artera: Strada Vasile Goldiş (Strada Narciselor), Nr: 14B"
148,"AB","Alba Iulia","AB20","Grădiniţa cu program prelungit step by step nr.12",46.0739851900,23.5610312200,"UAT: MUNICIPIUL ALBA IULIA, Localitate: ALBA IULIA, Artera: Strada Ştefan cel Mare (Strada Mesteacănului), Nr: 11"
149,"AB","Alba Iulia","AB21","Grădiniţa cu program prelungit step by step nr.12",46.0739851900,23.5610312200,"UAT: MUNICIPIUL ALBA IULIA, Localitate: ALBA IULIA, Artera: Strada Ştefan cel Mare (Strada Mesteacănului), Nr: 11"
150,"AB","Alba Iulia","AB22","Şcoala gimnazială „Mihai Eminescu",46.0752130400,23.5599918100,"UAT: MUNICIPIUL ALBA IULIA, Localitate: ALBA IULIA, Artera: Strada Toporaşilor (Strada Petru Rareş), Nr: 18"
151,"AB","Alba Iulia","AB23","Şcoala gimnazială „Mihai Eminescu",46.0752130400,23.5599918100,"UAT: MUNICIPIUL ALBA IULIA, Localitate: ALBA IULIA, Artera: Strada Toporaşilor (Strada Petru Rareş), Nr: 18"
152,"AB","Alba Iulia","AB24","Grădiniţa cu program prelungit nr.13",46.0755880100,23.5607614000,"UAT: MUNICIPIUL ALBA IULIA, Localitate: ALBA IULIA, Artera: Strada Energiei (Strada Mareşal Ion Antonescu), Nr: 21"
153,"AB","Alba Iulia","AB25","Grădiniţa cu program prelungit nr.13",46.0755880100,23.5607614000,"UAT: MUNICIPIUL ALBA IULIA, Localitate: ALBA IULIA, Artera: Strada Energiei (Strada Mareşal Ion Antonescu), Nr: 21"
154,"AB","Alba Iulia","AB26","Liceul cu program sportiv",46.0766719900,23.5646357000,"UAT: MUNICIPIUL ALBA IULIA, Localitate: ALBA IULIA, Artera: Strada Ştefan cel Mare (Strada Mesteacănului), Nr: 25"
155,"AB","Alba Iulia","AB34","Grădiniţa cu program normal nr. 10",46.0811763000,23.5717953100,"UAT: MUNICIPIUL ALBA IULIA, Localitate: ALBA IULIA, Artera: Strada Gheorghe Şincai (Strada Muncii), Nr: 21"
156,"AB","Tiur","AB91","Şcoala Gimnazială Simion Bărnuţiu Tiur",46.1596287100,23.8850244100,"UAT: MUNICIPIUL BLAJ, Localitate: TIUR, Nr: 213"
157,"DB","Brezoaele","DB153","ȘCOALA GIMNAZIALĂ BREZOAELE",44.5770610200,25.7450658700,"UAT: BREZOAELE, Localitate: BREZOAELE, Nr: 218"
158,"CT","Mangalia","CT215","Baza Spotivă Pescăruș",43.8066630000,28.5778618100,"UAT: MUNICIPIUL MANGALIA, Localitate: MANGALIA, Artera: Strada Negru Vodă, Nr: 41"
159,"CT","Mangalia","CT214","Grup Școlar Industrial Ion Bănescu",43.8040502900,28.5754387200,"UAT: MUNICIPIUL MANGALIA, Localitate: MANGALIA, Artera: Strada Portului, Nr: 19"
160,"CT","Mangalia","CT216","Școala Generală Nr.3",43.8094643600,28.5747189200,"UAT: MUNICIPIUL MANGALIA, Localitate: MANGALIA, Artera: Strada Albatros, Nr: 10"
161,"CT","Mangalia","CT217","Școala Generală Nr.3",43.8094643600,28.5747189200,"UAT: MUNICIPIUL MANGALIA, Localitate: MANGALIA, Artera: Strada Albatros, Nr: 10"
162,"CT","Mangalia","CT218","Grădinița Nr.3",43.8090687500,28.5739131000,"UAT: MUNICIPIUL MANGALIA, Localitate: MANGALIA, Artera: Bulevardul 1 Decembrie 1918 (Bulevardul 30 Decembrie), Nr: 62"
163,"CT","Mangalia","CT228","Școala Generală nr.5",43.8157818500,28.5824508600,"UAT: MUNICIPIUL MANGALIA, Localitate: MANGALIA, Artera: Şoseaua Constanţei (Strada Oltului), Nr: 27"
164,"CT","Mangalia","CT229","Fundația pentru Tineret",43.8174988500,28.5824603400,"UAT: MUNICIPIUL MANGALIA, Localitate: MANGALIA, Artera: Şoseaua Constanţei (Strada Oltului), Nr: 29B"
165,"CT","Mangalia","CT230","Hotel Mangalia",43.8163540000,28.5865688100,"UAT: MUNICIPIUL MANGALIA, Localitate: MANGALIA, Artera: Strada Matei Basarab, Nr: 3A"
166,"CT","Mangalia","CT231","Club Spital Mangalia",43.8174897000,28.5863197100,"UAT: MUNICIPIUL MANGALIA, Localitate: MANGALIA, Artera: Strada George Emil Palade, Nr: 30"
167,"CT","Mangalia","CT232","Grădinița Callatis",43.8250029200,28.5834228100,"UAT: MUNICIPIUL MANGALIA, Localitate: MANGALIA, Artera: Strada Rozelor, Nr: 42A"
168,"CT","Mangalia","CT233","Liceul Callatis",43.8242809000,28.5841984800,"UAT: MUNICIPIUL MANGALIA, Localitate: MANGALIA, Artera: Strada Rozelor, Nr: 42"
169,"CT","Neptun","CT235","Gradinita nr. 5 Neptun",43.8633056000,28.5954261100,"UAT: MUNICIPIUL MANGALIA, Localitate: NEPTUN, Artera: Strada Plopilor, Nr: 12 A"
170,"CT","Neptun","CT236","Grădinița nr. 5 Neptun",43.8633056000,28.5954261100,"UAT: MUNICIPIUL MANGALIA, Localitate: NEPTUN, Artera: Strada Plopilor, Nr: 12 A"
171,"CT","Medgidia","CT237","CASA DE CULTURĂ I.N.ROMAN",44.2476441500,28.2699565700,"UAT: MUNICIPIUL MEDGIDIA, Localitate: MEDGIDIA, Artera: Strada Republicii, Nr: 36"
172,"CT","Pietreni","CT430","Fost Sediu C.A.P. Pietreni",44.0962418500,28.0667701100,"UAT: DELENI, Localitate: PIETRENI, Nr: 130"
173,"CT","Dobromir","CT433","CĂMINUL CULTURAL DOBROMIR -",44.0211034000,27.7814056200,"UAT: DOBROMIR, Localitate: DOBROMIR"
174,"BV","Rupea","BV266","Club Muncitoresc Brafor Gara Rupea",46.0187302800,25.2744669800,"UAT: ORAŞ RUPEA, Localitate: RUPEA, Artera: Strada Muncii, Nr: 23"
175,"BV","Fişer","BV267","Scoala Primara Fiser",46.0789333100,25.1491875100,"UAT: ORAŞ RUPEA, Localitate: FIŞER, Nr: 227"
176,"BV","Victoria","BV268","PRIMARIA VICTORIA",45.7275212900,24.7005695500,"UAT: ORAŞ VICTORIA, Localitate: VICTORIA, Artera: Strada Stadionului, Nr: 14"
177,"BV","Victoria","BV270","Şcoala Gimnaziala Victoria",45.7296902400,24.6999070000,"UAT: ORAŞ VICTORIA, Localitate: VICTORIA, Artera: Strada 1 Decembrie 1918 (Strada Bujorului), Nr: 2"
178,"BV","Victoria","BV269","LICEUL TEORETIC I.C. DRĂGUȘANU",45.7294488000,24.6977365800,"UAT: ORAŞ VICTORIA, Localitate: VICTORIA, Artera: Strada 1 Decembrie 1918 (Strada Bujorului), Nr: 8"
179,"BV","Victoria","BV271","Colegiul Tehnic Dr. Alexandru Bărbat",45.7286337200,24.7047301000,"UAT: ORAŞ VICTORIA, Localitate: VICTORIA, Artera: Strada Salcîmilor, Nr: 2"
180,"BV","Victoria","BV272","Grădiniţa nr. 1",45.7263067000,24.7031428100,"UAT: ORAŞ VICTORIA, Localitate: VICTORIA, Artera: Strada Libertăţii, Nr: 1"
181,"BV","Zărneşti","BV273","GRĂDINIŢA BOBOCEL",45.5562035300,25.3144957500,"UAT: ORAŞ ZĂRNEŞTI, Localitate: ZĂRNEŞTI, Artera: Strada Grui, Nr: NR. 4"
182,"BV","Zărneşti","BV274","LICEUL TEORETIC M.I.MEŢIANU - corp A",45.5593575700,25.3167937200,"UAT: ORAŞ ZĂRNEŞTI, Localitate: ZĂRNEŞTI, Artera: Strada Dr. Ioan Senchea (Strada Caraiman), Nr: 23"
183,"BV","Zărneşti","BV275","LICEUL TEORETIC M.I.MEŢIANU - corp B",45.5607476000,25.3158943100,"UAT: ORAŞ ZĂRNEŞTI, Localitate: ZĂRNEŞTI, Artera: Strada Dr. Tiberiu Spîrchez (Strada 6 Martie), Nr: 2"
184,"BV","Zărneşti","BV276","LICEUL TEORETIC M.I.MEŢIANU - corp B",45.5607476000,25.3158943100,"UAT: ORAŞ ZĂRNEŞTI, Localitate: ZĂRNEŞTI, Artera: Strada Dr. Tiberiu Spîrchez (Strada 6 Martie), Nr: 2"
185,"BV","Zărneşti","BV277","CASA DE CULTURĂ",45.5608560800,25.3176595000,"UAT: ORAŞ ZĂRNEŞTI, Localitate: ZĂRNEŞTI, Artera: Strada Mitropolit Ion Metianu (Strada Republicii), Nr: 9"
186,"BV","Zărneşti","BV278","GRĂDINIŢA VOINICELUL NR. 2",45.5594831100,25.3202256800,"UAT: ORAŞ ZĂRNEŞTI, Localitate: ZĂRNEŞTI, Artera: Strada Dr. Ioan Senchea (Strada Caraiman), Nr: 61"
187,"BV","Zărneşti","BV279","CLUBUL PENSIONARILOR - Caraiman",45.5574982700,25.3174741200,"UAT: ORAŞ ZĂRNEŞTI, Localitate: ZĂRNEŞTI, Artera: Strada Zorilor"
188,"BV","Zărneşti","BV281","ŞCOALA GIMNAZIALĂ NR. 3 POMPILIU DAN-corp A",45.5620893900,25.3270556500,"UAT: ORAŞ ZĂRNEŞTI, Localitate: ZĂRNEŞTI, Artera: Strada Mitropolit Ion Metianu (Strada Republicii), Nr: 115"
189,"BV","Tohanu Nou","BV287","CĂMINUL CULTURAL TOHANUL NOU",45.5524433600,25.3822357000,"UAT: ORAŞ ZĂRNEŞTI, Localitate: TOHANU NOU"
190,"CS","Teregova","CS338","Liceul Tehnologic Sf. Dimitrie",45.1474364200,22.2839676000,"UAT: TEREGOVA, Localitate: TEREGOVA"
191,"CS","Ticvaniu Mare","CS343","Casa de Cultură Virgil Birou",45.1393828800,21.6383017900,"UAT: TICVANIU MARE, Localitate: TICVANIU MARE"
192,"CS","Cârnecea","CS340","Şcoala cu clasele I - IV",45.2003622100,21.6319405300,"UAT: TICVANIU MARE, Localitate: CÂRNECEA"
193,"CS","Secăşeni","CS341","Şcoala cu clasele I - IV",45.1781861400,21.6949307700,"UAT: TICVANIU MARE, Localitate: SECĂŞENI"
194,"CS","Ticvaniu Mic","CS342","Şcoala cu clasele I - IV",45.1158785400,21.6494888800,"UAT: TICVANIU MARE, Localitate: TICVANIU MIC"
195,"CS","Topleţ","CS344","Căminul Cultural",44.7971246000,22.3956994100,"UAT: TOPLEŢ, Localitate: TOPLEŢ, Nr: 155"
196,"CS","Bârza","CS345","Şcoala Primara Bîrza",44.8112175000,22.3874508100,"UAT: TOPLEŢ, Localitate: BÂRZA, Nr: 95"
197,"CS","Turnu Ruieni","CS346","Căminul Cultural Turnu Ruieni",45.3899912800,22.3343681300,"UAT: TURNU RUIENI, Localitate: TURNU RUIENI"
198,"CS","Borlova","CS347","Căminul Cultural-Borlova",45.3668757000,22.3503146100,"UAT: TURNU RUIENI, Localitate: BORLOVA"
199,"CS","Dalci","CS348","Şcoala Primara Dalci",45.4133697000,22.3103289100,"UAT: TURNU RUIENI, Localitate: DALCI"
200,"CS","Zerveşti","CS349","Căminul Cultural Zervesti",45.4059230800,22.2915021600,"UAT: TURNU RUIENI, Localitate: ZERVEŞTI"
201,"CS","Zlagna","CS350","Căminul Cultural-Zlagna",45.3775875800,22.2981107000,"UAT: TURNU RUIENI, Localitate: ZLAGNA"
202,"CS","Văliug","CS351","Şcoala Gimnazială Petre Sava Bălean",45.2293519400,22.0320068800,"UAT: VĂLIUG, Localitate: VĂLIUG, Nr: 57"
203,"CS","Vărădia","CS352","Căminul Cultural Vărădia",45.0846644200,21.5435426200,"UAT: VĂRĂDIA, Localitate: VĂRĂDIA, Nr: 178"
204,"CS","Mercina","CS353","Clădirea administraţiei locale",45.0623329000,21.5357185100,"UAT: VĂRĂDIA, Localitate: MERCINA"
205,"CS","Vermeş","CS356","Sala de Sport",45.5215388700,21.6602473600,"UAT: VERMEŞ, Localitate: VERMEŞ, Nr: 182"
206,"CS","Ersig","CS354","Şcoala Primară Ersig",45.5038413500,21.6213405700,"UAT: VERMEŞ, Localitate: ERSIG, Nr: 1"
207,"CS","Izgar","CS355","Şcoala Primară Izgar",45.5435854700,21.6057535900,"UAT: VERMEŞ, Localitate: IZGAR, Nr: 1"
208,"CS","Vrani","CS357","Căminul Cultural Vrani",45.0412401700,21.4883812900,"UAT: VRANI, Localitate: VRANI"
209,"CS","Ciortea","CS358","SCOALA PRIMARA CIORTEA",45.0314633800,21.4487184900,"UAT: VRANI, Localitate: CIORTEA"
210,"CS","Zăvoi","CS359","Căminul Cultural-ZAVOI",45.5247755000,22.4089833100,"UAT: ZĂVOI, Localitate: ZĂVOI, Nr: 47"
211,"BH","Nojorid","BH458","ȘCOALA GIMNAZIALĂ NR 1 NOJORID str. Principală nr 185 loc. Nojorid",46.9940262200,21.8823805900,"UAT: NOJORID, Localitate: NOJORID, Nr: 107"
212,"BH","Apateu","BH460","SCOALA CU CLASELE I-IV APATEU , loc. Apateu nr 41",46.9685018000,21.9256996500,"UAT: NOJORID, Localitate: APATEU"
213,"BH","Chişirid","BH461","ȘCOALA CU CL. I-IV CHIȘIRID, loc Chișirid nr 168",46.9695156000,21.8899605100,"UAT: NOJORID, Localitate: CHIŞIRID"
214,"BH","Leş","BH462","ȘCOALA PRIMARĂ NR.1",46.9644116000,21.8389301000,"UAT: NOJORID, Localitate: LEŞ, Nr: 139"
215,"BH","Livada De Bihor","BH463","GRĂDINIȚA - LIVADA DE BIHOR loc. Livada de Bihor nr. 228",47.0096617200,21.8047985700,"UAT: NOJORID, Localitate: LIVADA DE BIHOR"
216,"BH","Păuşa","BH464","ȘCOALA CU CL.I-IV PĂUȘA , nr 37/B",46.9475771000,21.8690696100,"UAT: NOJORID, Localitate: PĂUŞA"
217,"BH","ŞAuaieu","BH465","ȘCOALA CU CL. I-IV ȘAUAIEU, loc. Șauaieu nr 101",46.9374028000,21.9175614700,"UAT: NOJORID, Localitate: ŞAUAIEU"
218,"BH","Olcea","BH466","ŞCOALA GIMNAZIALĂ NR. 1 OLCEA",46.6833985900,21.9830295100,"UAT: OLCEA, Localitate: OLCEA, Nr: 229"
219,"BH","Călacea","BH467","ŞCOALA GIMNAZIALĂ NR. 2 CĂLACEA",46.6752649400,21.9277356400,"UAT: OLCEA, Localitate: CĂLACEA, Nr: 105"
220,"BH","Hodişel","BH468","ŞCOALA PRIMARĂ NR. 1 HODIŞEL",46.6483014800,22.0473926700,"UAT: OLCEA, Localitate: HODIŞEL, Nr: 143"
221,"BH","Ucuriş","BH469","GRĂDINIŢA CU PROGRAM NORMAL NR. 4 UCURIŞ",46.6394452000,21.9561356100,"UAT: OLCEA, Localitate: UCURIŞ, Nr: 258"
222,"BH","Oşorhei","BH470","ȘCOALA GIMNAZIALA „AUREL POP OȘORHEI",47.0413183300,22.0285383600,"UAT: OŞORHEI, Localitate: OŞORHEI, Nr: 109"
223,"BH","Oşorhei","BH471","ȘCOALA GIMNAZIALA „AUREL POP OȘORHEI",47.0413183300,22.0285383600,"UAT: OŞORHEI, Localitate: OŞORHEI, Nr: 109"
224,"BH","Alparea","BH472","Școala Primară nr.1 Alparea",47.0297677100,22.0472046400,"UAT: OŞORHEI, Localitate: ALPAREA, Nr: 23"
225,"BH","Cheriu","BH473","Școala Primară nr.2 Cheriu",47.0130218500,22.0203675700,"UAT: OŞORHEI, Localitate: CHERIU, Nr: 154"
226,"BH","Felcheriu","BH474","Cămin Cultural Felcheriu",46.9957592200,22.0777181900,"UAT: OŞORHEI, Localitate: FELCHERIU, Nr: 48"
227,"BH","Fughiu","BH475","Cămin Cultural Fughiu",47.0568792100,22.0445165100,"UAT: OŞORHEI, Localitate: FUGHIU, Nr: 77"
228,"BH","Paleu","BH476","ȘCOALA CU CLASELE I-IV",47.1149930000,21.9570521100,"UAT: PALEU, Localitate: PALEU, Nr: 20"
229,"BH","Săldăbagiu De Munte","BH478","ȘCOALA CU CLASELE I-IV",47.0904599500,21.9794779200,"UAT: PALEU, Localitate: SĂLDĂBAGIU DE MUNTE, Nr: 80"
230,"BH","Uileacu De Munte","BH477","ȘCOALA CU CLASELE I-IV",47.1187544700,21.9957512100,"UAT: PALEU, Localitate: UILEACU DE MUNTE, Nr: 60"
231,"DJ","Fărcaş","DJ347","CAMINUL CULTURAL FARCAS",44.6079288200,23.7449435900,"UAT: FĂRCAŞ, Localitate: FĂRCAŞ"
232,"DJ","Golumbu","DJ348","SCOALA GENERALA GOLUMBU",44.6294764700,23.7497004200,"UAT: FĂRCAŞ, Localitate: GOLUMBU"
233,"DJ","Craiova","DJ19","GRADINIŢA CU PROGRAM NORMAL PRICHINDEL(FOSTA NR. 55) – STRUCTURĂ A ŞCOLII GIMNAZIALE MIHAI EMINESCU (FOSTA NR.37)",44.3120427700,23.8403339900,"UAT: MUNICIPIUL CRAIOVA, Localitate: CRAIOVA, Artera: Strada Ion Ţuculescu, Nr: 2"
234,"DJ","Craiova","DJ20","LICEUL TEORETIC HENRI COANDĂ",44.3111022700,23.8216273100,"UAT: MUNICIPIUL CRAIOVA, Localitate: CRAIOVA, Artera: Strada Henri Coandă (Strada Humuleşti), Nr: 48"
235,"DJ","Craiova","DJ21","LICEUL TEORETIC HENRI COANDĂ",44.3111022700,23.8216273100,"UAT: MUNICIPIUL CRAIOVA, Localitate: CRAIOVA, Artera: Strada Henri Coandă (Strada Humuleşti), Nr: 48"
236,"DJ","Craiova","DJ22","LICEUL TEORETIC HENRI COANDĂ",44.3111022700,23.8216273100,"UAT: MUNICIPIUL CRAIOVA, Localitate: CRAIOVA, Artera: Strada Henri Coandă (Strada Humuleşti), Nr: 48"
237,"DJ","Craiova","DJ23","LICEUL TEHNOLOGIC UCECOM „SPIRU HARET",44.3084225900,23.8227560700,"UAT: MUNICIPIUL CRAIOVA, Localitate: CRAIOVA, Artera: Strada Electroputere, Nr: 2"
238,"DJ","Craiova","DJ24","LICEUL VOLTAIRE",44.3064809000,23.8227566300,"UAT: MUNICIPIUL CRAIOVA, Localitate: CRAIOVA, Artera: Strada Electroputere, Nr: 21"
239,"DJ","Craiova","DJ25","LICEUL VOLTAIRE",44.3064809000,23.8227566300,"UAT: MUNICIPIUL CRAIOVA, Localitate: CRAIOVA, Artera: Strada Electroputere, Nr: 21"
240,"DJ","Craiova","DJ26","GRADINIŢA DE COPII CU PROGRAM PRELUNGIT ELENA FARAGO(FOSTA NR.41)",44.3045439400,23.8180649700,"UAT: MUNICIPIUL CRAIOVA, Localitate: CRAIOVA, Artera: Strada Revoluţiei, Nr: 15"
241,"DJ","Craiova","DJ27","GRADINIŢA DE COPII CU PROGRAM PRELUNGIT ELENA FARAGO(FOSTA NR. 41)",44.3045439400,23.8180649700,"UAT: MUNICIPIUL CRAIOVA, Localitate: CRAIOVA, Artera: Strada Revoluţiei, Nr: 15"
242,"DJ","Craiova","DJ28","ŞCOALA GIMNAZIALĂ „NICOLAE ROMANESCU",44.3065100000,23.8160028200,"UAT: MUNICIPIUL CRAIOVA, Localitate: CRAIOVA, Artera: Strada Vîntului, Nr: 3"
243,"DJ","Craiova","DJ29","GRADINIŢA CU PROGRAM PRELUNGIT ION CREANGA (FOSTA NR. 42)",44.3064801200,23.8137239000,"UAT: MUNICIPIUL CRAIOVA, Localitate: CRAIOVA, Artera: Strada Aurel Vlaicu, Nr: 10"
244,"DJ","Craiova","DJ30","ŞCOALA GIMNAZIALĂ NICOLAE ROMANESCU (FOSTA NR. 29)",44.3043586300,23.8140749600,"UAT: MUNICIPIUL CRAIOVA, Localitate: CRAIOVA, Artera: Strada Caracal, Nr: 81"
245,"DJ","Craiova","DJ31","ŞCOALA GIMNAZIALĂ NICOLAE ROMANESCU (FOSTA NR. 29)",44.3043586300,23.8140749600,"UAT: MUNICIPIUL CRAIOVA, Localitate: CRAIOVA, Artera: Strada Caracal, Nr: 81"
246,"DJ","Galicea Mare","DJ349","ȘCOALA GIMNAZIALĂ CORP 3",44.0963720000,23.3083153100,"UAT: GALICEA MARE, Localitate: GALICEA MARE, Nr: 2"
247,"AB","Certege","AB129","Şcoala Primară Certege",46.4100895200,23.0319416200,"UAT: ORAŞ CÂMPENI, Localitate: CERTEGE, Nr: F.N."
248,"AB","Mihoeşti","AB130","Şcoala Primară Mihoeşti",46.3714924500,23.0224593400,"UAT: ORAŞ CÂMPENI, Localitate: MIHOEŞTI, Nr: F.N."
249,"AB","Cugir","AB136","ȘCOALA GIMNAZIALĂ NR.3 CUGIR",45.8438100000,23.3607190000,"UAT: ORAŞ CUGIR, Localitate: CUGIR, Artera: Strada Doinei, Nr: 3"
250,"AB","Alba Iulia","AB31","Bazin Olimpic",46.0808968500,23.5664034300,"UAT: MUNICIPIUL ALBA IULIA, Localitate: ALBA IULIA, Artera: Bulevardul Republicii (Bulevardul Victoriei), Nr: 3"
251,"AB","Alba Iulia","AB35","Colegiul Tehnic „Dorin Pavel Scoala generala nr. 9",46.0769494100,23.5801017700,"UAT: MUNICIPIUL ALBA IULIA, Localitate: ALBA IULIA, Artera: Strada Tudor Vladimirescu (Bulevardul Regele Carol I, Bulevardul Tudor Vladimirescu), Nr: 39"
252,"AB","Alba Iulia","AB36","Colegiul Tehnic „Dorin Pavel",46.0769494100,23.5801017700,"UAT: MUNICIPIUL ALBA IULIA, Localitate: ALBA IULIA, Artera: Strada Tudor Vladimirescu (Bulevardul Regele Carol I, Bulevardul Tudor Vladimirescu), Nr: 39"
253,"AB","Alba Iulia","AB37","Grădiniţa cu program prelungit nr.16",46.0866428100,23.5864595800,"UAT: MUNICIPIUL ALBA IULIA, Localitate: ALBA IULIA, Artera: Strada Tudor Vladimirescu (Bulevardul Regele Carol I, Bulevardul Tudor Vladimirescu), Nr: 143"
254,"AB","Alba Iulia","AB38","Colegiul Tehnic „Alexandru Domsa",46.0873187100,23.5871063200,"UAT: MUNICIPIUL ALBA IULIA, Localitate: ALBA IULIA, Artera: Strada Tudor Vladimirescu (Bulevardul Regele Carol I, Bulevardul Tudor Vladimirescu), Nr: 143"
255,"AB","Alba Iulia","AB39","Colegiul Tehnic „Alexandru Domsa",46.0873187100,23.5871063200,"UAT: MUNICIPIUL ALBA IULIA, Localitate: ALBA IULIA, Artera: Strada Tudor Vladimirescu (Bulevardul Regele Carol I, Bulevardul Tudor Vladimirescu), Nr: 143"
256,"AB","Alba Iulia","AB41","SC Florida Impex SRL",46.0881400800,23.5590266000,"UAT: MUNICIPIUL ALBA IULIA, Localitate: ALBA IULIA, Artera: Calea Moţilor, Nr: 176"
257,"AB","Alba Iulia","AB42","Grădiniţa cu program normal nr.5Partoş",46.0424730500,23.5603357300,"UAT: MUNICIPIUL ALBA IULIA, Localitate: ALBA IULIA, Artera: Strada Liliacului, Nr: 8"
258,"AB","Alba Iulia","AB43","Căminul pentru persoane vârstnice",46.0646909100,23.5456912400,"UAT: MUNICIPIUL ALBA IULIA, Localitate: ALBA IULIA, Artera: Strada Lalelelor (Strada Dr. Ştefan Cicio Pop), Nr: 60"
259,"AB","Alba Iulia","AB30","Bazin Olimpic",46.0808968500,23.5664034300,"UAT: MUNICIPIUL ALBA IULIA, Localitate: ALBA IULIA, Artera: Bulevardul Republicii (Bulevardul Victoriei), Nr: 3"
260,"AB","Alba Iulia","AB29","Liceul cu program sportiv",46.0766719900,23.5646357000,"UAT: MUNICIPIUL ALBA IULIA, Localitate: ALBA IULIA, Artera: Strada Ştefan cel Mare (Strada Mesteacănului), Nr: 25"
261,"CT","Lespezi","CT435","ȘCOALA GEN CU CLS. I - IV LESPEZI",44.0191279300,27.8294437200,"UAT: DOBROMIR, Localitate: LESPEZI"
262,"CT","Pădureni","CT437","ȘCOALA GEN CU CLS. I - IV PĂDURENI",44.0510300500,27.8649452600,"UAT: DOBROMIR, Localitate: PĂDURENI"
263,"CT","Medgidia","CT238","GRĂDINIŢA NR.1 -BILINGVĂ ROMANO-TURCA",44.2441102400,28.2736020100,"UAT: MUNICIPIUL MEDGIDIA, Localitate: MEDGIDIA, Artera: Strada Mărgăritarului, Nr: 16"
264,"CT","Medgidia","CT240","ŞCOALA MIHAIL SADOVEANU",44.2438043300,28.2819140800,"UAT: MUNICIPIUL MEDGIDIA, Localitate: MEDGIDIA, Artera: Strada Siretului, Nr: 94"
265,"CT","Medgidia","CT241","ŞCOALA MIHAIL SADOVEANU",44.2438043300,28.2819140800,"UAT: MUNICIPIUL MEDGIDIA, Localitate: MEDGIDIA, Artera: Strada Siretului, Nr: 94"
266,"CT","Medgidia","CT242","ŞCOALA GIMNAZIALĂ MIHAIL SADOVEANU",44.2438043300,28.2819140800,"UAT: MUNICIPIUL MEDGIDIA, Localitate: MEDGIDIA, Artera: Strada Siretului, Nr: 94"
267,"CT","Medgidia","CT243","GRĂDINIŢA NR.8",44.2445988900,28.2927239100,"UAT: MUNICIPIUL MEDGIDIA, Localitate: MEDGIDIA, Artera: Strada Poporului, Nr: FN"
268,"CT","Medgidia","CT244","LICEUL TEHNOLOGIC DRAGOMIR HURMUZESCU",44.2431523300,28.2955110000,"UAT: MUNICIPIUL MEDGIDIA, Localitate: MEDGIDIA, Artera: Strada Poporului, Nr: 1"
269,"CT","Medgidia","CT245","ŞCOALA CONSTANTIN BRÂNCUŞI",44.2439966400,28.2712840500,"UAT: MUNICIPIUL MEDGIDIA, Localitate: MEDGIDIA, Artera: Strada Kemal Agi Amet, Nr: 26"
270,"CT","Medgidia","CT247","LICEUL TEORETIC NICOLAE BĂLCESCU",44.2408907900,28.2705402300,"UAT: MUNICIPIUL MEDGIDIA, Localitate: MEDGIDIA, Nr: 2"
271,"CT","Medgidia","CT250","ŞCOALA MIRCEA DRAGOMIRESCU",44.2401170000,28.2739164100,"UAT: MUNICIPIUL MEDGIDIA, Localitate: MEDGIDIA, Artera: Strada Ion Creangă (Strada Bordei), Nr: 15"
272,"CT","Medgidia","CT248","LICEUL TEORETIC NICOLAE BĂLCESCU",44.2408907900,28.2705402300,"UAT: MUNICIPIUL MEDGIDIA, Localitate: MEDGIDIA, Nr: 2"
273,"CT","Medgidia","CT251","ŞCOALA GIMNAZIALĂ MIRCEA DRAGOMIRESCU",44.2401170000,28.2739164100,"UAT: MUNICIPIUL MEDGIDIA, Localitate: MEDGIDIA, Artera: Strada Ion Creangă (Strada Bordei), Nr: 15"
274,"CT","Medgidia","CT252","LICEUL TEORETIC NICOLAE BĂLCESCU MEDGIDIA",44.2413060000,28.2710380000,"UAT: MUNICIPIUL MEDGIDIA, Localitate: MEDGIDIA, Artera: Strada Scarlat Virnav, Nr: 2"
275,"CT","Medgidia","CT253","ŞCOALA GIMNAZIALĂ CONSTANTIN BRÂNCUŞI MEDGIDIA",44.2442330000,28.2712890000,"UAT: MUNICIPIUL MEDGIDIA, Localitate: MEDGIDIA, Artera: Strada Kemal Agi Amet, Nr: 26"
276,"CT","Medgidia","CT254","COLEGIUL KEMAL ATATURK",44.2462372400,28.2660139500,"UAT: MUNICIPIUL MEDGIDIA, Localitate: MEDGIDIA, Artera: Strada Română, Nr: 2"
277,"BV","Apaţa","BV289","Primăria comunei Apața",45.9494348000,25.5314267000,"UAT: APAŢA, Localitate: APAŢA, Nr: 57"
278,"BV","Apaţa","BV290","Primăria comunei Apața",45.9494348000,25.5314267000,"UAT: APAŢA, Localitate: APAŢA, Nr: 57"
279,"BV","Zărneşti","BV282","SPITALUL ORĂŞENESC DR. CAIUS TIBERIU SPÂRCHEZ",45.5704160700,25.3366617300,"UAT: ORAŞ ZĂRNEŞTI, Localitate: ZĂRNEŞTI, Artera: Strada Policlinicii, Nr: 12"
280,"BV","Zărneşti","BV280","CLUBUL PENSIONARILOR",45.5709241500,25.3427058000,"UAT: ORAŞ ZĂRNEŞTI, Localitate: ZĂRNEŞTI, Artera: Strada Ciucaş, Nr: 21"
281,"BV","Zărneşti","BV283","ŞCOALA GIMNAZIALĂ NR. 1 GHEORGHE CRĂCIUN corp B",45.5745846800,25.3433834700,"UAT: ORAŞ ZĂRNEŞTI, Localitate: ZĂRNEŞTI, Artera: Strada Carpaţi, Nr: 1"
282,"BV","Zărneşti","BV284","ŞCOALA GIMNAZIALĂ NR. 1 GHEORGHE CRĂCIUN",45.5745846800,25.3433834700,"UAT: ORAŞ ZĂRNEŞTI, Localitate: ZĂRNEŞTI, Artera: Strada Carpaţi, Nr: 1"
283,"BV","Zărneşti","BV285","LICEUL TEHNOLOGIC MALAXA",45.5668370800,25.3553591600,"UAT: ORAŞ ZĂRNEŞTI, Localitate: ZĂRNEŞTI, Artera: Aleea Uzinei, Nr: 2"
284,"BV","Zărneşti","BV286","SCOALA GIMNAZIALA NR. 2",45.5765365800,25.3625347100,"UAT: ORAŞ ZĂRNEŞTI, Localitate: ZĂRNEŞTI, Artera: Piaţa Morii, Nr: 1"
285,"BV","Zărneşti","BV288","CAMINUL CULTURAL TOHANUL VECHI",45.5763836000,25.3621052100,"UAT: ORAŞ ZĂRNEŞTI, Localitate: ZĂRNEŞTI, Artera: Strada Şcolii, Nr: 134"
286,"BV","Colonia Bod","BV300","Școala Generală Colonia Bod",45.7560626300,25.6024405400,"UAT: BOD, Localitate: COLONIA BOD, Artera: Strada Fabricii, Nr: 2"
287,"BZ","Râmnicu Sărat","BZ88","Liceul Tehnologic Victor Frunză",45.3784893500,27.0512759800,"UAT: MUNICIPIUL RÂMNICU SĂRAT, Localitate: RÂMNICU SĂRAT, Artera: Strada Nicolae Bălcescu, Nr: 2"
288,"BZ","Râmnicu Sărat","BZ91","Grădiniţa cu program prelungit Muguraşii",45.3784836200,27.0450590900,"UAT: MUNICIPIUL RÂMNICU SĂRAT, Localitate: RÂMNICU SĂRAT, Artera: Strada Constantin Brâncoveanu, Nr: 13"
289,"BZ","Râmnicu Sărat","BZ85","Şcoala gimnazială Vasile Cristoforeanu",45.3832557200,27.0427570600,"UAT: MUNICIPIUL RÂMNICU SĂRAT, Localitate: RÂMNICU SĂRAT, Artera: Strada Principele Ferdinand (Strada Constantin Dobrogeanu Gherea)"
290,"BZ","Râmnicu Sărat","BZ101","Liceul Economic Elina Matei Basarab",45.3750360800,27.0504418500,"UAT: MUNICIPIUL RÂMNICU SĂRAT, Localitate: RÂMNICU SĂRAT, Artera: Strada Lalelelor, Nr: 1"
291,"BZ","Râmnicu Sărat","BZ81","Centrul de recuperare pentru copii cu dizabilităţi",45.3908383100,27.0511286900,"UAT: MUNICIPIUL RÂMNICU SĂRAT, Localitate: RÂMNICU SĂRAT, Artera: Strada Privighetorilor, Nr: 3"
292,"BZ","Râmnicu Sărat","BZ99","S.C. RAFINĂRIA VENUS OILREG S.A.",45.3722621300,27.0582657900,"UAT: MUNICIPIUL RÂMNICU SĂRAT, Localitate: RÂMNICU SĂRAT, Artera: Strada Costieni, Nr: 106"
293,"GJ","Târgu Jiu","GJ29","COLEGIUL NAŢIONAL ECATERINA TEODOROIU",45.0281046400,23.2709601300,"UAT: MUNICIPIUL TÂRGU JIU, Localitate: TÂRGU JIU, Artera: Strada 1 Decembrie 1918, Nr: 25"
294,"GJ","Târgu Jiu","GJ30","COLEGIUL NAŢIONAL ECATERINA TEODOROIU",45.0281046400,23.2709601300,"UAT: MUNICIPIUL TÂRGU JIU, Localitate: TÂRGU JIU, Artera: Strada 1 Decembrie 1918, Nr: 25"
295,"GJ","Târgu Jiu","GJ32","LICEUL CU PROGRAM SPORTIV",45.0237384600,23.2715651700,"UAT: MUNICIPIUL TÂRGU JIU, Localitate: TÂRGU JIU, Artera: Strada 23 August, Nr: 100"
296,"GJ","Târgu Jiu","GJ31","LICEUL CU PROGRAM SPORTIV",45.0237384600,23.2715651700,"UAT: MUNICIPIUL TÂRGU JIU, Localitate: TÂRGU JIU, Artera: Strada 23 August, Nr: 100"
297,"GJ","Târgu Jiu","GJ33","COLEGIUL ECONOMIC VIRGIL MADGEARU",45.0383131000,23.2860505100,"UAT: MUNICIPIUL TÂRGU JIU, Localitate: TÂRGU JIU, Artera: Strada Tudor Vladimirescu, Nr: 127"
298,"GJ","Târgu Jiu","GJ28","COLEGIUL NAȚIONAL ECATERINA TEODOROIU",45.0281046400,23.2709601300,"UAT: MUNICIPIUL TÂRGU JIU, Localitate: TÂRGU JIU, Artera: Strada 1 Decembrie 1918, Nr: 25"
299,"GJ","Târgu Jiu","GJ27","ŞCOALA GIMNAZIALĂ CONSTANTIN BRÂNCUŞI",45.0238009000,23.2765329100,"UAT: MUNICIPIUL TÂRGU JIU, Localitate: TÂRGU JIU, Artera: Strada Liviu Rebreanu, Nr: 1"
300,"GJ","Târgu Jiu","GJ21","ŞCOALA GIMNAZIALĂ GHEORGHE TĂTĂRĂSCU",45.0285375100,23.2718884900,"UAT: MUNICIPIUL TÂRGU JIU, Localitate: TÂRGU JIU, Artera: Strada 23 August, Nr: 47"
301,"GJ","Târgu Jiu","GJ26","ŞCOALA GIMNAZIALĂ CONSTANTIN BRÂNCUŞI",45.0238009000,23.2765329100,"UAT: MUNICIPIUL TÂRGU JIU, Localitate: TÂRGU JIU, Artera: Strada Liviu Rebreanu, Nr: 1"
302,"GJ","Târgu Jiu","GJ41","ŞCOALA GIMNAZIALĂ SFÂNTU NICOLAE",45.0474567700,23.2749499900,"UAT: MUNICIPIUL TÂRGU JIU, Localitate: TÂRGU JIU, Artera: Strada 11 Iunie 1848, Nr: 64"
303,"GJ","Târgu Jiu","GJ40","ŞCOALA GIMNAZIALĂ SFÂNTU NICOLAE",45.0474567700,23.2749499900,"UAT: MUNICIPIUL TÂRGU JIU, Localitate: TÂRGU JIU, Artera: Strada 11 Iunie 1848, Nr: 64"
304,"GJ","Târgu Jiu","GJ35","LICEUL DE ARTE CONSTANTIN BRĂILOIU",45.0436284200,23.2780815000,"UAT: MUNICIPIUL TÂRGU JIU, Localitate: TÂRGU JIU, Artera: Strada Griviţei, Nr: 34"
305,"GJ","Târgu Jiu","GJ42","ŞCOALA GIMNAZIALĂ SFÂNTU NICOLAE",45.0474567700,23.2749499900,"UAT: MUNICIPIUL TÂRGU JIU, Localitate: TÂRGU JIU, Artera: Strada 11 Iunie 1848, Nr: 64"
306,"GJ","Târgu Jiu","GJ49","ŞCOALA GIMNAZIALĂ NR.7",45.0677570600,23.2937263600,"UAT: MUNICIPIUL TÂRGU JIU, Localitate: TÂRGU JIU, Artera: Strada Ecaterina Teodoroiu, Nr: 369"
307,"GJ","Costeni","GJ108","SCOALA GENERALA COSTENI",45.0186316100,22.8949685000,"UAT: ORAŞ TISMANA, Localitate: COSTENI, Nr: 162"
308,"GJ","Pocruia","GJ106","SCOALA GENERALA POCRUIA",45.0450578700,22.9233691500,"UAT: ORAŞ TISMANA, Localitate: POCRUIA, Nr: 114"
309,"AG","Cotu Malului","AG356","ŞCOALA COTU MALULUI",44.7513818500,25.1913993300,"UAT: LEORDENI, Localitate: COTU MALULUI"
310,"AG","Glâmbocata-Deal","AG354","CLĂDIREA MULTIFUNCŢIONALĂ GLÂMBOCATA-DEAL",44.7795014500,25.1979894300,"UAT: LEORDENI, Localitate: GLÂMBOCATA-DEAL"
311,"AG","Lereşti","AG357","ȘCOALA GIMNAZIALĂ NR.1 LEREȘTI, SAT LEREȘTI",45.3279427000,25.0711520900,"UAT: LEREŞTI, Localitate: LEREŞTI, Artera: Strada General Vasile Milea, Nr: 228"
312,"AG","Lereşti","AG359","CĂMIN CULTURAL LEREȘTI",45.3290175700,25.0693023400,"UAT: LEREŞTI, Localitate: LEREŞTI, Nr: 780"
313,"AG","Voineşti","AG358","ȘCOALA GIMNAZIALĂ NR.1 LEREȘTI, SAT VOINEȘTI",45.2988013800,25.0715765600,"UAT: LEREŞTI, Localitate: VOINEŞTI, Artera: Strada General Vasile Milea, Nr: 139"
314,"AG","Lunca Corbului","AG360","Şcoala Gimnazială General Constantin Cristescu Lunca Corbului",44.6827805000,24.7609863500,"UAT: LUNCA CORBULUI, Localitate: LUNCA CORBULUI"
315,"AG","Lunca Corbului","AG361","Şcoala Silişteni",44.7249351500,24.7819688900,"UAT: LUNCA CORBULUI, Localitate: LUNCA CORBULUI"
316,"AG","Lunca Corbului","AG362","Şcoala Pădureţi",44.6499198500,24.7621359000,"UAT: LUNCA CORBULUI, Localitate: LUNCA CORBULUI"
317,"AG","Lunca Corbului","AG363","Şcoala Mîrghia de Sus",44.6887860300,24.7112277100,"UAT: LUNCA CORBULUI, Localitate: LUNCA CORBULUI"
318,"AG","Mălureni","AG364","Şcoala Mălureni",45.0940199500,24.8013239400,"UAT: MĂLURENI, Localitate: MĂLURENI"
319,"AG","Mălureni","AG365","Cămin Cultural Bădiceni",45.0645140000,24.7847925100,"UAT: MĂLURENI, Localitate: MĂLURENI"
320,"AG","Buneşti","AG369","Şcoala Buneşti",45.0155263000,24.7539078600,"UAT: MĂLURENI, Localitate: BUNEŞTI"
321,"AG","Păuleasca","AG370","Tabăra Păuleasca",45.0150791200,24.8329631200,"UAT: MĂLURENI, Localitate: PĂULEASCA"
322,"AG","Topliţa","AG366","Şcoala Bohari",45.0429299700,24.7685672300,"UAT: MĂLURENI, Localitate: TOPLIŢA"
323,"AG","Topliţa","AG367","Şcoala Topliţa",45.0895849000,24.7311058100,"UAT: MĂLURENI, Localitate: TOPLIŢA"
324,"AG","Zărneşti","AG368","Şcoala Zărneşti",45.0192052600,24.7693867600,"UAT: MĂLURENI, Localitate: ZĂRNEŞTI"
325,"AG","Mărăcineni","AG371","Şcoala Generală nr.1",44.8890584900,24.8761243300,"UAT: MĂRĂCINENI, Localitate: MĂRĂCINENI"
326,"AG","Mărăcineni","AG372","Şcoala Generală nr.1",44.8890584900,24.8761243300,"UAT: MĂRĂCINENI, Localitate: MĂRĂCINENI"
327,"AG","Argeşelu","AG373","Şcoala Generală Argeşelu",44.9159178400,24.8676049700,"UAT: MĂRĂCINENI, Localitate: ARGEŞELU"
328,"AG","Merişani","AG376","Căminul Cultural Merişani",44.9650429300,24.7448024500,"UAT: MERIŞANI, Localitate: MERIŞANI"
329,"AG","Borleşti","AG375","Școala Generală Borlești",44.9477085000,24.7624216100,"UAT: MERIŞANI, Localitate: BORLEŞTI"
330,"CS","Măgura","CS360","Şcoala Primară Măgura",45.4995719200,22.4129995300,"UAT: ZĂVOI, Localitate: MĂGURA, Nr: 34"
331,"CS","Poiana Mărului","CS362","OCOLUL SILVIC",45.4005120000,22.5423979700,"UAT: ZĂVOI, Localitate: POIANA MĂRULUI, Nr: 23"
332,"CS","Voislova","CS363","Şcoala primară Voislova",45.5260514000,22.4588812000,"UAT: ZĂVOI, Localitate: VOISLOVA, Nr: 22 B"
333,"CS","Zorlenţu Mare","CS365","Şcoala Gimnaziala Zorlentu Mare",45.4519692100,21.9506238500,"UAT: ZORLENŢU MARE, Localitate: ZORLENŢU MARE, Nr: 369"
334,"CS","Zorlencior","CS364","Căminul Cultural",45.4753419700,22.0077526800,"UAT: ZORLENŢU MARE, Localitate: ZORLENCIOR"
335,"CL","Călăraşi","CL1","Scoala Gimnaziala CAROL I Calarasi",44.1925812900,27.3319839700,"UAT: MUNICIPIUL CĂLĂRAŞI, Localitate: CĂLĂRAŞI, Artera: Strada Bucureşti, Nr: 159"
336,"CL","Călăraşi","CL2","Scoala Gimnaziala CAROL I Calarasi",44.1925812900,27.3319839700,"UAT: MUNICIPIUL CĂLĂRAŞI, Localitate: CĂLĂRAŞI, Artera: Strada Bucureşti, Nr: 159"
337,"CL","Călăraşi","CL3","Scoala Gimnaziala CAROL I Calarasi",44.1952482300,27.3258759000,"UAT: MUNICIPIUL CĂLĂRAŞI, Localitate: CĂLĂRAŞI, Artera: Strada Bucureşti, Nr: 72"
338,"CL","Călăraşi","CL4","Scoala Gimnaziala CAROL I Calarasi",44.1952482300,27.3258759000,"UAT: MUNICIPIUL CĂLĂRAŞI, Localitate: CĂLĂRAŞI, Artera: Strada Bucureşti, Nr: 72"
339,"CL","Călăraşi","CL5","Colegiul Naţional Barbu Ştirbei",44.1977298000,27.3317125600,"UAT: MUNICIPIUL CĂLĂRAŞI, Localitate: CĂLĂRAŞI, Artera: Strada Eroilor Revoluţiei 22 Dec.1989 (Strada 30 Decembrie), Nr: 36"
340,"CL","Călăraşi","CL6","Colegiul Naţional Barbu Ştirbei",44.1977298000,27.3317125600,"UAT: MUNICIPIUL CĂLĂRAŞI, Localitate: CĂLĂRAŞI, Artera: Strada Eroilor Revoluţiei 22 Dec.1989 (Strada 30 Decembrie), Nr: 36"
341,"CL","Călăraşi","CL7","Grădiniţa cu pr.normal nr.5 Calarasi",44.1951272000,27.3280749900,"UAT: MUNICIPIUL CĂLĂRAŞI, Localitate: CĂLĂRAŞI, Artera: Strada Griviţa, Nr: 98"
342,"CL","Călăraşi","CL8","Grădiniţa cu pr.normal nr.4 Calarasi",44.2020290500,27.3241000600,"UAT: MUNICIPIUL CĂLĂRAŞI, Localitate: CĂLĂRAŞI, Artera: Strada Stadionului, Nr: 27"
343,"CL","Călăraşi","CL16","Şcoala gimnaziala Mihai Viteazul Calarasi",44.2017700200,27.3172140700,"UAT: MUNICIPIUL CĂLĂRAŞI, Localitate: CĂLĂRAŞI, Artera: Prelungirea Bucureşti, Nr: 12"
344,"CL","Călăraşi","CL17","Şcoala gimnaziala Mihai Viteazul Calarasi",44.2017700200,27.3172140700,"UAT: MUNICIPIUL CĂLĂRAŞI, Localitate: CĂLĂRAŞI, Artera: Prelungirea Bucureşti, Nr: 12"
345,"CL","Budeşti","CL67","scoala gimnaziala gheorghe manu",44.2346299900,26.4621313500,"UAT: ORAŞ BUDEŞTI, Localitate: BUDEŞTI"
346,"CL","Măriuţa","CL85","SCOALA PRIMARA MARIUTA",44.5352162300,26.4822960100,"UAT: BELCIUGATELE, Localitate: MĂRIUŢA, Nr: 200"
347,"BH","Pietroasa","BH479","ȘCOALA GIMNAZIALĂ NR.1 PIETROASA",46.5909585300,22.5563379400,"UAT: PIETROASA, Localitate: PIETROASA, Nr: 217"
348,"BH","Giuleşti","BH483","ȘCOALA PRIMARĂ NR.4 GIULEȘTI",46.5469908000,22.5910451100,"UAT: PIETROASA, Localitate: GIULEŞTI, Nr: 29"
349,"BH","Gurani","BH480","ȘCOALA PRIMARĂ NR.1 GURANI",46.5951241100,22.5435244800,"UAT: PIETROASA, Localitate: GURANI, Nr: 111"
350,"BH","Măgura","BH484","ȘCOALA PRIMARĂ NR.3 MĂGURA",46.5546646500,22.5530258000,"UAT: PIETROASA, Localitate: MĂGURA, Nr: 70"
351,"BH","Moţeşti","BH485","ȘCOALA PRIMARĂ NR.5 MOȚEȘTI",46.5617719100,22.5077808800,"UAT: PIETROASA, Localitate: MOŢEŞTI, Nr: 24"
352,"BH","Pocola","BH486","CAMINUL CULTURAL POCOLA",46.6946085900,22.2932446500,"UAT: POCOLA, Localitate: POCOLA, Nr: 65"
353,"BH","Feneriş","BH487","CAMINUL CULTURAL FENERIȘ",46.7111951000,22.2868901400,"UAT: POCOLA, Localitate: FENERIŞ, Nr: 123"
354,"BH","Petrani","BH488","CAMIN CULTURAL PETRANI",46.6891255400,22.2682176000,"UAT: POCOLA, Localitate: PETRANI, Nr: 156"
355,"BH","Sânmartin De Beiuş","BH489","CAMIN CULTURAL SINMARTIN DE BEIUȘ",46.6900174500,22.3211375500,"UAT: POCOLA, Localitate: SÂNMARTIN DE BEIUŞ, Nr: 35"
356,"BH","Pomezeu","BH495","ȘCOALA GIMNAZIALĂ NR.1 POMEZEU",46.7935730000,22.2882109200,"UAT: POMEZEU, Localitate: POMEZEU, Nr: 80"
357,"BH","Câmpani De Pomezeu","BH497","ȘCOALA PRIMARĂ NR.2 CÎMPANI",46.7956434000,22.3101483900,"UAT: POMEZEU, Localitate: CÂMPANI DE POMEZEU, Nr: 102"
358,"BH","Coşdeni","BH490","CĂMIN CULTURAL COȘDENI",46.7709629000,22.2860848100,"UAT: POMEZEU, Localitate: COŞDENI, Nr: 61A"
359,"BH","Hidiş","BH491","CĂMIN CULTURAL HIDIȘ",46.7773931500,22.2603184000,"UAT: POMEZEU, Localitate: HIDIŞ, Nr: 4A"
360,"BH","Lacu Sărat","BH496","ȘCOALA GENERALĂ LACU SĂRAT",46.8021345000,22.3551153100,"UAT: POMEZEU, Localitate: LACU SĂRAT, Nr: 1A"
361,"BH","Sitani","BH494","GRĂDINIȚA CU PROGRAM NORMAL NR.2 SITANI",46.8130469700,22.3005544800,"UAT: POMEZEU, Localitate: SITANI, Nr: 153"
362,"BH","Spinuş De Pomezeu","BH492","CĂMIN CULTURAL SPINUȘ DE POMEZEU",46.7864226600,22.2722688200,"UAT: POMEZEU, Localitate: SPINUŞ DE POMEZEU, Nr: 86B"
363,"BH","Vălani De Pomezeu","BH493","CĂMIN CULTURAL VĂLANI DE POMEZEU",46.7857851000,22.3216438600,"UAT: POMEZEU, Localitate: VĂLANI DE POMEZEU, Nr: 20"
364,"BH","Popeşti","BH498","LICEUL TEHNOLOGIC NR 1 POPESTI",47.2369863900,22.4193333300,"UAT: POPEŞTI, Localitate: POPEŞTI, Nr: 191A"
365,"BH","Popeşti","BH499","LICEUL TEHNOLOGIC NR 1 POPESTI",47.2369863900,22.4193333300,"UAT: POPEŞTI, Localitate: POPEŞTI, Nr: 191A"
366,"BH","Bistra","BH502","ȘCOALA GENERALĂ BISTRA",47.2540014500,22.4198983200,"UAT: POPEŞTI, Localitate: BISTRA, Nr: FN"
367,"BH","Budoi","BH503","LICEUL JOSEF KOZACEK BUDOI",47.2069507000,22.3531042700,"UAT: POPEŞTI, Localitate: BUDOI, Nr: 191B"
368,"AB","Alba Iulia","AB27","Liceul cu program sportiv",46.0766719900,23.5646357000,"UAT: MUNICIPIUL ALBA IULIA, Localitate: ALBA IULIA, Artera: Strada Ştefan cel Mare (Strada Mesteacănului), Nr: 25"
369,"AB","Cobleş","AB196","Școala Primară Cobleș",46.5128127000,22.7207107100,"UAT: ARIEŞENI, Localitate: COBLEŞ, Nr: 575A"
370,"AB","Avram Iancu","AB197","CĂMINUL CULTURAL AVRAM IANCU",46.3578337000,22.8241528000,"UAT: AVRAM IANCU, Localitate: AVRAM IANCU, Nr: 27 B"
371,"AB","Târsa","AB198","ŞCOALA PRIMARĂ I-IV TÎRSA",46.3795124900,22.7985155700,"UAT: AVRAM IANCU, Localitate: TÂRSA, Nr: 783E"
372,"AB","Alba Iulia","AB28","Liceul cu program sportiv",46.0766719900,23.5646357000,"UAT: MUNICIPIUL ALBA IULIA, Localitate: ALBA IULIA, Artera: Strada Ştefan cel Mare (Strada Mesteacănului), Nr: 25"
373,"AB","Alba Iulia","AB32","Stadion municipal „Cetate",46.0789211000,23.5679093100,"UAT: MUNICIPIUL ALBA IULIA, Localitate: ALBA IULIA, Artera: Strada Septimius Severus (Strada Mărţişor), Nr: 38"
374,"AB","Alba Iulia","AB33","Gradinita cu program normal nr. 10",46.0811763000,23.5717953100,"UAT: MUNICIPIUL ALBA IULIA, Localitate: ALBA IULIA, Artera: Strada Gheorghe Şincai (Strada Muncii), Nr: 21"
375,"AB","Alba Iulia","AB40","Colegiul Tehnic „Alexandru Domsa",46.0873187100,23.5871063200,"UAT: MUNICIPIUL ALBA IULIA, Localitate: ALBA IULIA, Artera: Strada Tudor Vladimirescu (Bulevardul Regele Carol I, Bulevardul Tudor Vladimirescu), Nr: 143"
376,"AB","Alba Iulia","AB12","COLEGIUL TEHNIC APULUM",46.0657417900,23.5612421800,"UAT: MUNICIPIUL ALBA IULIA, Localitate: ALBA IULIA, Artera: Strada Gheorghe Pop de Băseşti (Strada Macului), Nr: 2"
377,"AB","Bărăbanţ","AB44","Grădiniţa cu program normal Bărăbanţ",46.1000193000,23.5831209100,"UAT: MUNICIPIUL ALBA IULIA, Localitate: BĂRĂBANŢ, Artera: Strada Mureşului, Nr: 136"
378,"AB","Bărăbanţ","AB45","Grădiniţa cu program normal Bărăbanţ",46.1000193000,23.5831209100,"UAT: MUNICIPIUL ALBA IULIA, Localitate: BĂRĂBANŢ, Artera: Strada Mureşului, Nr: 136"
379,"AB","Miceşti","AB46","Şcoala gimnazială Miceşti - Sala de sport",46.1037417000,23.5500008200,"UAT: MUNICIPIUL ALBA IULIA, Localitate: MICEŞTI, Artera: Strada Scărişoara, Nr: 17"
380,"AB","Miceşti","AB47","Şcoala gimnazială Miceşti",46.1037417000,23.5500008200,"UAT: MUNICIPIUL ALBA IULIA, Localitate: MICEŞTI, Artera: Strada Scărişoara, Nr: 17"
381,"AB","Oarda","AB48","Căminul Cultural Oarda de Jos",46.0355843400,23.5627698200,"UAT: MUNICIPIUL ALBA IULIA, Localitate: OARDA, Artera: Strada Biruinţei, Nr: 14"
382,"AB","Oarda","AB49","Grădiniţa cu program normal Oarda de sus",46.0221844800,23.5889423900,"UAT: MUNICIPIUL ALBA IULIA, Localitate: OARDA, Artera: Strada Victoriei, Nr: 87"
383,"AB","Pâclişa","AB50","Şcoala primară Pâclişa",46.0463004300,23.5234308200,"UAT: MUNICIPIUL ALBA IULIA, Localitate: PÂCLIŞA, Artera: Strada Carpenului, Nr: 133"
384,"CT","Fântânele","CT441","ȘCOALA GIMNAZIALA NR.1 FÂNTÂNELE",44.6118859400,28.5747846000,"UAT: FÂNTÂNELE, Localitate: FÂNTÂNELE, Nr: 83"
385,"CT","Cheia","CT446","GRADINITA CU PROGRAM NORMAL CHEIA",44.5160231900,28.4300911600,"UAT: GRĂDINA, Localitate: CHEIA"
386,"CT","Horia","CT447","CĂMIN CULTURAL HORIA",44.6336787600,28.1240810300,"UAT: HORIA, Localitate: HORIA"
387,"CT","Medgidia","CT255","HOTEL STADION",44.2482056800,28.2568294200,"UAT: MUNICIPIUL MEDGIDIA, Localitate: MEDGIDIA, Artera: Strada Podgoriilor, Nr: 1A"
388,"CT","Medgidia","CT256","HOTEL STADION",44.2482056800,28.2568294200,"UAT: MUNICIPIUL MEDGIDIA, Localitate: MEDGIDIA, Artera: Strada Podgoriilor, Nr: 1A"
389,"CT","Medgidia","CT257","HOTEL STADION",44.2482056800,28.2568294200,"UAT: MUNICIPIUL MEDGIDIA, Localitate: MEDGIDIA, Artera: Strada Podgoriilor, Nr: 1A"
390,"CT","Medgidia","CT258","ANEXA - COLEGIUL KEMAL ATATURK",44.2453878000,28.2623039100,"UAT: MUNICIPIUL MEDGIDIA, Localitate: MEDGIDIA, Artera: Strada Lupeni, Nr: 18"
391,"CT","Medgidia","CT259","ANEXA - COLEGIUL KEMAL ATATURK",44.2453878000,28.2623039100,"UAT: MUNICIPIUL MEDGIDIA, Localitate: MEDGIDIA, Artera: Strada Lupeni, Nr: 18"
392,"CT","Medgidia","CT260","ŞCOALA LUCIAN GRIGORESCU",44.2470745500,28.2676865300,"UAT: MUNICIPIUL MEDGIDIA, Localitate: MEDGIDIA, Artera: Aleea Trandafirilor, Nr: 24"
393,"CT","Medgidia","CT261","ŞCOALA LUCIAN GRIGORESCU",44.2470745500,28.2676865300,"UAT: MUNICIPIUL MEDGIDIA, Localitate: MEDGIDIA, Artera: Aleea Trandafirilor, Nr: 24"
394,"CT","Medgidia","CT246","ŞCOALA CONSTANTIN BRÂNCUŞI",44.2439966400,28.2712840500,"UAT: MUNICIPIUL MEDGIDIA, Localitate: MEDGIDIA, Artera: Strada Kemal Agi Amet, Nr: 26"
395,"CT","Medgidia","CT262","ŞCOALA GIMNAZIALĂ I.L.CARAGIALE MEDGIDIA",44.2596160000,28.2621090000,"UAT: MUNICIPIUL MEDGIDIA, Localitate: MEDGIDIA, Artera: Strada Independenţei, Nr: 65 A"
396,"CT","Medgidia","CT263","ŞCOALA I.L.CARAGIALE",44.2593821500,28.2617387200,"UAT: MUNICIPIUL MEDGIDIA, Localitate: MEDGIDIA, Nr: 65A"
397,"CT","Medgidia","CT267","COLEGIUL TEHNIC NICOLAE TITULESCU",44.2606911700,28.2650460000,"UAT: MUNICIPIUL MEDGIDIA, Localitate: MEDGIDIA, Artera: Strada Dezrobirii, Nr: 1"
398,"CT","Medgidia","CT268","ŞCOALA SPIRU HARET",44.2593821300,28.2680362000,"UAT: MUNICIPIUL MEDGIDIA, Localitate: MEDGIDIA, Nr: 44"
399,"CT","Medgidia","CT269","ŞCOALA SPIRU HARET",44.2593821300,28.2680362000,"UAT: MUNICIPIUL MEDGIDIA, Localitate: MEDGIDIA, Nr: 44"
400,"CT","Medgidia","CT270","ŞCOALA SPIRU HARET",44.2593821300,28.2680362000,"UAT: MUNICIPIUL MEDGIDIA, Localitate: MEDGIDIA, Nr: 44"
401,"CT","Medgidia","CT271","GRADINIŢA NR.7",44.2548048200,28.2666658900,"UAT: MUNICIPIUL MEDGIDIA, Localitate: MEDGIDIA, Artera: Strada Alexandru cel Bun, Nr: 22"
402,"CL","Căscioarele","CL91","CAMINUL CULTURAL",44.1278446400,26.4703427300,"UAT: CĂSCIOARELE, Localitate: CĂSCIOARELE, Nr: 96"
403,"CL","Chirnogi","CL92","Scoala cu clasele I-VIII, nr.1",44.1076981400,26.5685586500,"UAT: CHIRNOGI, Localitate: CHIRNOGI, Nr: 12"
404,"CL","Călăraşi","CL18","Şcoala gimnaziala Mihai Viteazul Calarasi",44.2017700200,27.3172140700,"UAT: MUNICIPIUL CĂLĂRAŞI, Localitate: CĂLĂRAŞI, Artera: Prelungirea Bucureşti, Nr: 12"
405,"CL","Călăraşi","CL19","Şcoala gimnaziala Mihai Viteazul Calarasi",44.2017700200,27.3172140700,"UAT: MUNICIPIUL CĂLĂRAŞI, Localitate: CĂLĂRAŞI, Artera: Prelungirea Bucureşti, Nr: 12"
406,"CL","Călăraşi","CL20","Sala de sport a scolii gimnaziale Nicolae Titulescu",44.2029589500,27.3204179800,"UAT: MUNICIPIUL CĂLĂRAŞI, Localitate: CĂLĂRAŞI, Artera: Bulevardul Nicolae Titulescu (Strada Călăraşilor), Nr: 3"
407,"CL","Călăraşi","CL21","Sala de sport a scolii gimnaziale Nicolae Titulescu",44.2029589500,27.3204179800,"UAT: MUNICIPIUL CĂLĂRAŞI, Localitate: CĂLĂRAŞI, Artera: Bulevardul Nicolae Titulescu (Strada Călăraşilor), Nr: 3"
408,"CL","Călăraşi","CL22","Grădiniţa cu pr.prel.nr.1",44.2032548800,27.3196360500,"UAT: MUNICIPIUL CĂLĂRAŞI, Localitate: CĂLĂRAŞI, Artera: Strada Dunării, Nr: 1"
409,"CL","Călăraşi","CL23","Grădiniţa cu program normal nr.2 Calarasi",44.2048113100,27.3210358400,"UAT: MUNICIPIUL CĂLĂRAŞI, Localitate: CĂLĂRAŞI, Artera: Strada Bărăganului, Nr: 34"
410,"CL","Călăraşi","CL24","Liceul Danubius Calarasi",44.2066053000,27.3190714000,"UAT: MUNICIPIUL CĂLĂRAŞI, Localitate: CĂLĂRAŞI, Artera: Strada Ştirbei Vodă (Strada Proiectată), Nr: 1"
411,"CL","Călăraşi","CL25","Liceul Danubius Calarasi",44.2066053000,27.3190714000,"UAT: MUNICIPIUL CĂLĂRAŞI, Localitate: CĂLĂRAŞI, Artera: Strada Ştirbei Vodă (Strada Proiectată), Nr: 1"
412,"CL","Călăraşi","CL26","Liceul Danubius Calarasi",44.2066053000,27.3190714000,"UAT: MUNICIPIUL CĂLĂRAŞI, Localitate: CĂLĂRAŞI, Artera: Strada Ştirbei Vodă (Strada Proiectată), Nr: 1"
413,"CL","Călăraşi","CL28","Creşa săptămânală cu 100 locuri",44.2081445000,27.3162234100,"UAT: MUNICIPIUL CĂLĂRAŞI, Localitate: CĂLĂRAŞI, Artera: Strada Muşeţelului, Nr: 9"
414,"CL","Călăraşi","CL29","Creşa săptămânală cu 100 locuri",44.2081445000,27.3162234100,"UAT: MUNICIPIUL CĂLĂRAŞI, Localitate: CĂLĂRAŞI, Artera: Strada Muşeţelului, Nr: 9"
415,"CL","Călăraşi","CL30","Şcoala gimnaziala T.Vladimirescu",44.2077071900,27.3145251400,"UAT: MUNICIPIUL CĂLĂRAŞI, Localitate: CĂLĂRAŞI, Artera: Strada Belşugului, Nr: 2"
416,"CL","Călăraşi","CL31","Şcoala gimnaziala T.Vladimirescu",44.2077071900,27.3145251400,"UAT: MUNICIPIUL CĂLĂRAŞI, Localitate: CĂLĂRAŞI, Artera: Strada Belşugului, Nr: 2"
417,"DJ","Goicea","DJ372","GRĂDINIȚA NR.2",43.9347734600,23.6130570500,"UAT: GOICEA, Localitate: GOICEA"
418,"DJ","Goieşti","DJ373","CAMIN CULTURAL GOIESTI SALA",44.5007712100,23.7527955200,"UAT: GOIEŞTI, Localitate: GOIEŞTI"
419,"DJ","Mălăeşti","DJ375","SCOALA CU CLS I-IV MALAESTI SALA",44.4622026600,23.7449557200,"UAT: GOIEŞTI, Localitate: MĂLĂEŞTI"
420,"DJ","Băileşti","DJ185","Liceul Tehnologic Ştefan Anghel",44.0193138600,23.3441615500,"UAT: MUNICIPIUL BĂILEŞTI, Localitate: BĂILEŞTI"
421,"DJ","Băileşti","DJ183","Şcoala gimnazială nr. 4",44.0213811500,23.3507263500,"UAT: MUNICIPIUL BĂILEŞTI, Localitate: BĂILEŞTI, Artera: Strada Amza Pellea (Strada Poporului), Nr: 40"
422,"DJ","Calafat","DJ197","Sc.Generala nr. 2 Calafat",43.9904292500,22.9329585600,"UAT: MUNICIPIUL CALAFAT, Localitate: CALAFAT, Artera: Strada Tudor Vladimirescu, Nr: 52"
423,"DJ","Calafat","DJ198","Gradinita nr. 4 ( din cadrul Sc.Generale nr.1 Calafat )",43.9844540900,22.9309842600,"UAT: MUNICIPIUL CALAFAT, Localitate: CALAFAT, Artera: Strada 22 Decembrie (Strada 30 Decembrie), Nr: 130"
424,"DJ","Calafat","DJ199","Clubul Pensionarilor",43.9850153300,22.9312650300,"UAT: MUNICIPIUL CALAFAT, Localitate: CALAFAT, Artera: Strada 1907, Nr: f.n, Bl: A13"
425,"DJ","Calafat","DJ193","Sc. Generala nr. 1 Calafat",43.9956030100,22.9359988800,"UAT: MUNICIPIUL CALAFAT, Localitate: CALAFAT, Artera: Strada Traian (Strada V. I. Lenin), Nr: 26"
426,"DJ","Calafat","DJ195","Clubul Copiilor",43.9954430700,22.9350289900,"UAT: MUNICIPIUL CALAFAT, Localitate: CALAFAT, Artera: Strada Traian (Strada V. I. Lenin), Nr: 45"
427,"DJ","Calafat","DJ196","Sc. Generala nr. 2 Calafat",43.9909703100,22.9336465100,"UAT: MUNICIPIUL CALAFAT, Localitate: CALAFAT, Artera: Strada Tudor Vladimirescu, Nr: 52"
428,"DJ","Basarabi","DJ191","Caminul Cultural Basarabi (din cadrul Casei de Cultura Calafat )",44.0066368200,23.0085496300,"UAT: MUNICIPIUL CALAFAT, Localitate: BASARABI, Nr: 114"
429,"DJ","Ciupercenii Vechi","DJ192","Caminul Cultural Ciupercenii Vechii ( din cadrul Casei de Cultura Calafat )",43.9440665400,22.8960949000,"UAT: MUNICIPIUL CALAFAT, Localitate: CIUPERCENII VECHI, Nr: 9"
430,"DJ","Golenţi","DJ190","Caminul Cultural Golenti (din cadrul Casei de Cultura Calafat )",44.0129322500,23.0522200000,"UAT: MUNICIPIUL CALAFAT, Localitate: GOLENŢI, Artera: Strada Trandafirilor, Nr: 101"
431,"DJ","Dăbuleni","DJ204","Clubul Copiilor Dabuleni",43.8009406700,24.0954495600,"UAT: ORAŞ DĂBULENI, Localitate: DĂBULENI, Artera: Strada Unirii, Nr: 15"
432,"DJ","Dăbuleni","DJ205","SCOALA GIMNAZIALA CU CLASELE I-VIII NR.1 DABULENI, NORD",43.8003603000,24.0950054000,"UAT: ORAŞ DĂBULENI, Localitate: DĂBULENI, Artera: Strada Unirii, Nr: 16"
433,"DJ","Dăbuleni","DJ209","Liceul Teoretic Constantin Brancoveanu (fosta Scoala nr. 3, intrare profesori)",43.7995775900,24.0781937200,"UAT: ORAŞ DĂBULENI, Localitate: DĂBULENI, Artera: Strada Victoriei, Nr: 84"
434,"BZ","Greceanca","BZ172","Şcoala Generală Greceanca",45.0767771600,26.5472420800,"UAT: BREAZA, Localitate: GRECEANCA"
435,"BZ","Vispeşti","BZ173","Şcoala Primară Vispeşti",45.0975036100,26.5197588800,"UAT: BREAZA, Localitate: VISPEŞTI"
436,"BZ","Buda","BZ174","Grădiniţa cu Program Normal Buda",45.5000095200,26.9037821900,"UAT: BUDA, Localitate: BUDA, Nr: 256"
437,"BV","Drăuşeni","BV316","Grădiniţa Drăuşeni",46.1432680400,25.3135527900,"UAT: CAŢA, Localitate: DRĂUŞENI, Nr: 147"
438,"BV","Ioneşti","BV317","Căminul cultural Ioneşti",46.1605401200,25.3367910200,"UAT: CAŢA, Localitate: IONEŞTI, Nr: 68"
439,"BV","Paloş","BV318","Şcoala generală Paloş",46.1201062800,25.2314435100,"UAT: CAŢA, Localitate: PALOŞ, Nr: 203"
440,"BV","Cincu","BV319","GRĂDINIȚA CU PROGRAM PRELUNGIT CINCU",45.9139373000,24.8046306000,"UAT: CINCU, Localitate: CINCU, Nr: 592"
441,"BV","Toarcla","BV320","ȘCOALA GENERALĂ TOARCLA",45.8980106900,24.7396707500,"UAT: CINCU, Localitate: TOARCLA, Nr: 148"
442,"BV","Comana De Jos","BV321","Căminul Cultural Comăna de Jos",45.9142707300,25.2279190100,"UAT: COMANA, Localitate: COMANA DE JOS, Nr: 178"
443,"BV","Comana De Sus","BV322","Căminul Cultural Comăna de Sus",45.8957448200,25.2693207600,"UAT: COMANA, Localitate: COMANA DE SUS, Nr: 124"
444,"BV","Crihalma","BV323","Căminul Cultural Crihalma",45.9252905700,25.1981600700,"UAT: COMANA, Localitate: CRIHALMA, Nr: 64"
445,"BV","Ticuşu Nou","BV324","Căminul Cultural Ticuşu Nou",45.9177048600,25.1801960400,"UAT: COMANA, Localitate: TICUŞU NOU, Nr: 88"
446,"BV","Cristian","BV325","GRADINITA DE COPII CRISTIAN",45.6252523400,25.4804823300,"UAT: CRISTIAN, Localitate: CRISTIAN, Nr: 8"
447,"BV","Cristian","BV326","CAMINUL CULTURAL NR. 1",45.6247651000,25.4815342700,"UAT: CRISTIAN, Localitate: CRISTIAN, Nr: 103"
448,"BV","Cristian","BV327","SCOALA GENERALA, CORP B",45.6300689000,25.4868342700,"UAT: CRISTIAN, Localitate: CRISTIAN, Nr: 161"
449,"BV","Crizbav","BV328","CĂMINUL CULTURAL",45.8149610800,25.4659169800,"UAT: CRIZBAV, Localitate: CRIZBAV, Artera: Strada Principală, Nr: 1"
450,"BV","Cutuş","BV329","Şcoala primară Cutuş",45.8234023400,25.4677653700,"UAT: CRIZBAV, Localitate: CUTUŞ, Artera: Strada Cetăţii, Nr: 75"
451,"BV","Drăguş","BV330","Primăria Drăguş",45.7615357600,24.7742524000,"UAT: DRĂGUŞ, Localitate: DRĂGUŞ, Artera: Strada Principală, Nr: 42"
452,"BV","Dumbrăviţa","BV331","Primăria Comunei Dumbrăviţa",45.7671637800,25.4346866800,"UAT: DUMBRĂVIŢA, Localitate: DUMBRĂVIŢA, Artera: Strada Mare, Nr: 1176"
453,"BV","Dumbrăviţa","BV332","Grădiniţa cu program normal Dumbrăviţa",45.7676886800,25.4342056300,"UAT: DUMBRĂVIŢA, Localitate: DUMBRĂVIŢA, Artera: Strada Mare, Nr: 981"
454,"AG","Dobrogostea","AG374","Şcoala Primară Dobrogostea",44.9275959700,24.7860748500,"UAT: MERIŞANI, Localitate: DOBROGOSTEA"
455,"AG","Malu Vânăt","AG377","Şcoala Primară Malu Vânăt",44.9871265300,24.7237450900,"UAT: MERIŞANI, Localitate: MALU VÂNĂT"
456,"AG","Vâlcelele","AG378","Căminul Cultural Vîlcelele",45.0060444200,24.7018708100,"UAT: MERIŞANI, Localitate: VÂLCELELE"
457,"AG","Miceşti","AG379","Şcoala Gimnaziala nr.1 Miceşti",44.9490360800,24.8648371100,"UAT: MICEŞTI, Localitate: MICEŞTI"
458,"AG","Păuleasca","AG381","Şcoala Primara nr.2 Păuleasca",45.0094755900,24.8405658700,"UAT: MICEŞTI, Localitate: PĂULEASCA"
459,"AG","Purcăreni","AG380","Cămin Cultural Purcăreni",44.9673994400,24.8858974300,"UAT: MICEŞTI, Localitate: PURCĂRENI"
460,"AG","Mihăeşti","AG382","CĂMINUL CULTURAL MIHĂEȘTI",45.1040283800,25.0084473200,"UAT: MIHĂEŞTI, Localitate: MIHĂEŞTI"
461,"AG","Drăghici","AG384","Cămin Cultural Drăghici",45.1267270000,25.0401400000,"UAT: MIHĂEŞTI, Localitate: DRĂGHICI"
462,"AG","Furnicoşi","AG386","CAMINUL CULTURAL FURNICOSI",45.1422437600,24.9988028800,"UAT: MIHĂEŞTI, Localitate: FURNICOŞI"
463,"AG","Valea Popii","AG383","ȘCOALA GENERALĂ VALEA POPII",45.0913179400,25.0167376400,"UAT: MIHĂEŞTI, Localitate: VALEA POPII"
464,"AG","Văcarea","AG385","ȘCOALA GENERALĂ VĂCAREA",45.1096657400,25.0412867600,"UAT: MIHĂEŞTI, Localitate: VĂCAREA"
465,"AG","Măţău","AG387","Cămin Cultural Măţău",45.2353570100,25.0809705000,"UAT: MIOARELE, Localitate: MĂŢĂU"
466,"AG","Suslăneşti","AG388","Şcoala Primară I-IV Suslăneşti",45.2397635700,25.1190102400,"UAT: MIOARELE, Localitate: SUSLĂNEŞTI"
467,"AG","Miroşi","AG389","Cămin Cultural Miroşi",44.4163156800,24.9438938100,"UAT: MIROŞI, Localitate: MIROŞI"
468,"AG","Surduleşti","AG390","Şcoala Surduleşti",44.3930233000,24.9560812000,"UAT: MIROŞI, Localitate: SURDULEŞTI"
469,"AG","Morăreşti","AG391","Şcoala Generală cu clasele I-VIII Morăreşti",45.0063438500,24.5615833200,"UAT: MORĂREŞTI, Localitate: MORĂREŞTI"
470,"AG","Deduleşti","AG392","Şcoala cu clasele I-IV Deduleşti",45.0151407000,24.5420960100,"UAT: MORĂREŞTI, Localitate: DEDULEŞTI"
471,"AG","Moşoaia","AG393","Cămin Cultural Moşoaia",44.8296717500,24.7691614700,"UAT: MOŞOAIA, Localitate: MOŞOAIA"
472,"AG","Ciocănăi","AG396","Şcoala cu clasele I-IV Ciocănăi",44.8445542200,24.7832445900,"UAT: MOŞOAIA, Localitate: CIOCĂNĂI"
473,"AG","Hinţeşti","AG394","Şcoala cu clasele I-VIII Hinţeşti",44.8137013300,24.8350957300,"UAT: MOŞOAIA, Localitate: HINŢEŞTI"
474,"AG","Smeura","AG395","Şcoala cu clasele I-IV Smeura",44.8328359100,24.8370657500,"UAT: MOŞOAIA, Localitate: SMEURA"
475,"AG","Mozăceni","AG398","LICEUL TEHNOLOGIC LIVIU REBREANU Mozăceni",44.5549739900,25.1807520300,"UAT: MOZĂCENI, Localitate: MOZĂCENI"
476,"AB","Aiud","AB51","Școala Gimnazială Ovidiu Hulea Aiud",46.3098422200,23.7163170700,"UAT: MUNICIPIUL AIUD, Localitate: AIUD, Artera: Strada Cuza Vodă, Nr: 35"
477,"AB","Aiud","AB54","Grădiniţa cu Program Prelungit Primii Paşi Aiud",46.3164665700,23.7261467300,"UAT: MUNICIPIUL AIUD, Localitate: AIUD, Artera: Strada Tribun Tudoran, Nr: 5"
478,"AB","Berghin","AB200","CLĂDIRE CĂMIN CULTURAL BERGHIN",46.0736065600,23.7387002600,"UAT: BERGHIN, Localitate: BERGHIN, Nr: 90"
479,"AB","Ghirbom","AB201","CLĂDIRE CĂMIN CULTURAL GHIRBOM",46.0359163200,23.7217176900,"UAT: BERGHIN, Localitate: GHIRBOM, Nr: 376A"
480,"AB","Henig","AB199","CLĂDIRE CĂMIN CULTURAL HENIG",46.1057343700,23.7271484800,"UAT: BERGHIN, Localitate: HENIG, Nr: 167A"
481,"AB","Aiud","AB55","Grădiniţa cu Program Prelungit Primii Paşi Aiud",46.3164665700,23.7261467300,"UAT: MUNICIPIUL AIUD, Localitate: AIUD, Artera: Strada Tribun Tudoran, Nr: 5"
482,"AB","Aiud","AB61","Colegiul Naţional Titu Maiorescu Aiud",46.3064572200,23.7224704100,"UAT: MUNICIPIUL AIUD, Localitate: AIUD, Artera: Strada Ecaterina Varga, Nr: 10"
483,"AB","Aiud","AB62","Colegiul Tehnic Aiud",46.3074718500,23.7193526600,"UAT: MUNICIPIUL AIUD, Localitate: AIUD, Artera: Strada Ion Creangă, Nr: 14"
484,"AB","Aiud","AB63","Colegiul Tehnic Aiud",46.3074718500,23.7193526600,"UAT: MUNICIPIUL AIUD, Localitate: AIUD, Artera: Strada Ion Creangă, Nr: 14"
485,"AB","Aiud","AB64","Fosta Grădiniţă Nr. 1 Aiud",46.3088774000,23.7134366100,"UAT: MUNICIPIUL AIUD, Localitate: AIUD, Artera: Strada Simion Bărnuţiu, Nr: 24"
486,"AB","Aiud","AB52","Şcoala Gimnazială Ovidiu Hulea Aiud",46.3098422200,23.7163170700,"UAT: MUNICIPIUL AIUD, Localitate: AIUD, Artera: Strada Cuza Vodă, Nr: 35"
487,"AB","Aiud","AB53","Şcoala Gimnazială Ovidiu Hulea Aiud",46.3098422200,23.7163170700,"UAT: MUNICIPIUL AIUD, Localitate: AIUD, Artera: Strada Cuza Vodă, Nr: 35"
488,"AB","Aiud","AB56","Școala Gimnazială Axente Sever Aiud",46.3090609600,23.7309298000,"UAT: MUNICIPIUL AIUD, Localitate: AIUD, Artera: Strada Unirii, Nr: 9"
489,"AB","Aiud","AB60","Grădiniţa cu Program Prelungit nr. 2 Aiud",46.3089581700,23.7303812400,"UAT: MUNICIPIUL AIUD, Localitate: AIUD, Artera: Strada Unirii, Nr: 10"
490,"AB","Aiud","AB57","Şcoala Gimnazială Axente Sever Aiud",46.3086756200,23.7295105200,"UAT: MUNICIPIUL AIUD, Localitate: AIUD, Artera: Strada Unirii, Nr: 9"
491,"AB","Aiud","AB58","Şcoala Gimnazială Axente Sever Aiud",46.3086756200,23.7295105200,"UAT: MUNICIPIUL AIUD, Localitate: AIUD, Artera: Strada Unirii, Nr: 9"
492,"AB","Aiud","AB59","Şcoala Gimnazială Axente Sever Aiud",46.3086756200,23.7295105200,"UAT: MUNICIPIUL AIUD, Localitate: AIUD, Artera: Strada Unirii, Nr: 9"
493,"AB","Aiudul De Sus","AB65","Şcoala Gimnazială Liviu Rebreanu Aiudul de Sus",46.3155123000,23.6888593100,"UAT: MUNICIPIUL AIUD, Localitate: AIUDUL DE SUS, Artera: Strada Gheorghe Lazăr, Nr: 17"
494,"BH","Cuzap","BH504","ȘCOALA GENERALĂ CUZAP",47.2000240800,22.4135432700,"UAT: POPEŞTI, Localitate: CUZAP, Nr: FN"
495,"BH","Varviz","BH505","ȘCOALA GENERALĂ VARVIZ",47.2233819000,22.4365781100,"UAT: POPEŞTI, Localitate: VARVIZ, Nr: FN"
496,"BH","Vărzari","BH506","ȘCOALA GENERALĂ VĂRZARI",47.2021056000,22.4600337100,"UAT: POPEŞTI, Localitate: VĂRZARI, Nr: FN"
497,"BH","Voivozi","BH500","ŞCOALA GENERALĂ VOIVOZI",47.2162494000,22.3889758400,"UAT: POPEŞTI, Localitate: VOIVOZI, Nr: FN"
498,"BH","Voivozi","BH501","ŞCOALA GENERALĂ VOIVOZI",47.2162494000,22.3889758400,"UAT: POPEŞTI, Localitate: VOIVOZI, Nr: FN"
499,"BH","Răbăgani","BH507","CĂMINUL CULTURAL",46.7476443400,22.2331177400,"UAT: RĂBĂGANI, Localitate: RĂBĂGANI, Nr: 163"
500,"BH","Albeşti","BH508","FOSTA ȘCOALĂ CU CLASELE I-IV ALBEȘTI",46.7710109000,22.2494798100,"UAT: RĂBĂGANI, Localitate: ALBEŞTI, Nr: 160"
501,"BH","Brăteşti","BH512","FOSTA GRĂDINIȚĂ CU PROGRAM NORMAL",46.7615420500,22.1907620300,"UAT: RĂBĂGANI, Localitate: BRĂTEŞTI, Nr: 263"
502,"BH","Sălişte De Pomezeu","BH509","CĂMINUL CULTURAL",46.7467486800,22.2888614800,"UAT: RĂBĂGANI, Localitate: SĂLIŞTE DE POMEZEU, Nr: 21"
503,"BH","Săucani","BH510","CĂMINUL CULTURAL",46.7334795400,22.2632975400,"UAT: RĂBĂGANI, Localitate: SĂUCANI, Nr: 136"
504,"BH","Vărăşeni","BH511","CĂMINUL CULTURAL",46.7675247800,22.2106835900,"UAT: RĂBĂGANI, Localitate: VĂRĂŞENI, Nr: 150"
505,"BH","Remetea","BH513","ȘCOALA GIMNAZIALĂ NR 1",46.7388855000,22.3470706100,"UAT: REMETEA, Localitate: REMETEA, Nr: 298"
506,"BH","Drăgoteni","BH515","ȘCOALA PRIMARĂ nr. 2",46.7317120000,22.3071365100,"UAT: REMETEA, Localitate: DRĂGOTENI, Nr: 79/C"
507,"BH","Meziad","BH514","ȘCOALA GIMNAZIALĂ NR 2",46.7401556000,22.4283846000,"UAT: REMETEA, Localitate: MEZIAD, Nr: 434"
508,"BH","Petreasa","BH516","ȘCOALA PRIMARĂ nr. 1",46.7131407400,22.3467244100,"UAT: REMETEA, Localitate: PETREASA, Nr: 36"
509,"BH","ŞOimuş","BH517","CĂMINUL CULTURAL ŞOIMUŞ",46.7173918000,22.3296410200,"UAT: REMETEA, Localitate: ŞOIMUŞ, Nr: 55"
510,"BH","Rieni","BH518","CĂMIN CULTURAL RIENI",46.5752553200,22.4460855200,"UAT: RIENI, Localitate: RIENI, Nr: 151"
511,"BH","Ghighişeni","BH519","CĂMIN CULTURAL GHIGHIȘENI",46.5529116800,22.4291005500,"UAT: RIENI, Localitate: GHIGHIŞENI, Nr: 63A"
512,"BH","Petrileni","BH521","CĂMIN CULTURAL PETRILENI",46.5555275000,22.4463164100,"UAT: RIENI, Localitate: PETRILENI, Nr: 32A"
513,"BH","Sudrigiu","BH522","CĂMIN CULTURAL SUDRIGIU",46.5918123100,22.4299319900,"UAT: RIENI, Localitate: SUDRIGIU, Nr: 55"
514,"BH","Valea De Jos","BH520","ȘCOALA PRIMARĂ NR.1 VALEA DE JOS",46.5717847300,22.4837768700,"UAT: RIENI, Localitate: VALEA DE JOS, Nr: 36A"
515,"BH","Roşia","BH523","CĂMINUL CULTURAL ROŞIA",46.8072200600,22.3979772000,"UAT: ROŞIA, Localitate: ROŞIA, Nr: 40"
516,"CT","Ostrov","CT501","Cămin Cultural Ostrov",44.1077669200,27.3674214600,"UAT: OSTROV, Localitate: OSTROV, Artera: Strada 1 Mai, Nr: 78"
517,"CT","Ostrov","CT502","Cămin Cultural Ostrov",44.1077669200,27.3674214600,"UAT: OSTROV, Localitate: OSTROV, Artera: Strada 1 Mai, Nr: 78"
518,"CT","Almălău","CT503","CĂMIN CULTURAL ALMĂLĂU",44.0837169000,27.3409048100,"UAT: OSTROV, Localitate: ALMĂLĂU"
519,"CT","Medgidia","CT266","COLEGIUL TEHNIC NICOLAE TITULESCU",44.2606911700,28.2650460000,"UAT: MUNICIPIUL MEDGIDIA, Localitate: MEDGIDIA, Artera: Strada Dezrobirii, Nr: 1"
520,"CT","Medgidia","CT249","SCOALA MIRCEA DRAGOMIRESCU",44.2401170000,28.2739164100,"UAT: MUNICIPIUL MEDGIDIA, Localitate: MEDGIDIA"
521,"CT","Medgidia","CT239","GRADINITA NR.1",44.2441102400,28.2736020100,"UAT: MUNICIPIUL MEDGIDIA, Localitate: MEDGIDIA, Artera: Strada Mărgăritarului"
522,"CT","Medgidia","CT264","SCOALA I.L.CARAGIALE",44.2593821500,28.2617387200,"UAT: MUNICIPIUL MEDGIDIA, Localitate: MEDGIDIA, Artera: Bulevardul Independenţei, Nr: 65A"
523,"CT","Medgidia","CT265","SCOALA I.L.CARAGIALE",44.2593821500,28.2617387200,"UAT: MUNICIPIUL MEDGIDIA, Localitate: MEDGIDIA, Artera: Bulevardul Independenţei, Nr: 65A"
524,"CT","Remus Opreanu","CT273","S.C. MAXICOMP SRL",44.2401614000,28.2133796100,"UAT: MUNICIPIUL MEDGIDIA, Localitate: REMUS OPREANU, Artera: Strada Patriei, Nr: 8"
525,"CT","Valea Dacilor","CT272","ŞCOALA IULIU PRODAN",44.1960595900,28.3159502200,"UAT: MUNICIPIUL MEDGIDIA, Localitate: VALEA DACILOR, Nr: 33"
526,"CT","Murfatlar","CT300","LICEUL TEORETIC MURFATLAR",44.1755070800,28.4194863800,"UAT: ORAŞ MURFATLAR, Localitate: MURFATLAR, Artera: Strada Mihai Eminescu, Nr: 50"
527,"CT","Murfatlar","CT301","LICEUL TEORETIC MURFATLAR",44.1755070800,28.4194863800,"UAT: ORAŞ MURFATLAR, Localitate: MURFATLAR, Artera: Strada Mihai Eminescu, Nr: 50"
528,"CT","Murfatlar","CT302","SALA DE SPORT",44.1778243400,28.4191218600,"UAT: ORAŞ MURFATLAR, Localitate: MURFATLAR, Artera: Strada G-ral Vasile Milea, Nr: 2B"
529,"CT","Murfatlar","CT303","ȘCOALA GENERALĂ NR.2 MURFATLAR",44.1784729000,28.4074152100,"UAT: ORAŞ MURFATLAR, Localitate: MURFATLAR, Artera: Strada Ion Creangă, Nr: 25"
530,"CT","Murfatlar","CT304","CLUB TINERET MURFATLAR",44.1740424500,28.4077124500,"UAT: ORAŞ MURFATLAR, Localitate: MURFATLAR, Artera: Aleea Mărgăritarelor, Nr: 9A"
531,"CT","Murfatlar","CT305","S.C.U.G S.A. MURFATLAR",44.1729889500,28.4006622300,"UAT: ORAŞ MURFATLAR, Localitate: MURFATLAR, Artera: Strada Ciocârliei (Strada Ciocîrliei), Nr: 1"
532,"CT","Siminoc","CT306","CĂMIN CULTURAL SIMINOC",44.1699516300,28.3531220000,"UAT: ORAŞ MURFATLAR, Localitate: SIMINOC, Artera: Strada Murfatlar, Nr: 8"
533,"GJ","Sohodol","GJ107","SCOALA GENERALA SOHODOL",45.0498034900,22.8912646800,"UAT: ORAŞ TISMANA, Localitate: SOHODOL, Nr: 151"
534,"GJ","Topeşti","GJ105","SCOALA GENERALA TOPESTI",45.0759610500,22.9781773900,"UAT: ORAŞ TISMANA, Localitate: TOPEŞTI, Nr: 42"
535,"GJ","Turceni","GJ111","POLIȚIA LOCALĂ TURCENI",44.6701598000,23.3848367100,"UAT: ORAŞ TURCENI, Localitate: TURCENI, Artera: Strada Sf. Nicolae, Nr: 178"
536,"GJ","Turceni","GJ112","ȘCOALA GENERALĂ STOLOJANI",44.6832500200,23.3506881100,"UAT: ORAŞ TURCENI, Localitate: TURCENI, Artera: Strada Prof. Emil Gîlceavă, Nr: 118"
537,"GJ","Turceni","GJ110","LICEUL TEHNOLOGIC TURCENI-CLĂDIREA INTERNAT",44.6811289300,23.3731200400,"UAT: ORAŞ TURCENI, Localitate: TURCENI, Artera: Strada Culturii, Nr: 1"
538,"GJ","Turceni","GJ109","LICEUL TEHNOLOGIC TURCENI-CLĂDIREA INTERNAT",44.6811289300,23.3731200400,"UAT: ORAŞ TURCENI, Localitate: TURCENI, Artera: Strada Culturii, Nr: 1"
539,"GJ","Gârbovu","GJ114","ȘCOALA GENERALĂ GÂRBOVU",44.7321788600,23.3438038100,"UAT: ORAŞ TURCENI, Localitate: GÂRBOVU, Artera: Strada 8 Septembrie, Nr: 81"
540,"GJ","Murgeşti","GJ113","ȘCOALA GENERALĂ MURGEȘTI",44.7115124900,23.3629978500,"UAT: ORAŞ TURCENI, Localitate: MURGEŞTI, Artera: Strada 1 Decembrie, Nr: 65A"
541,"GJ","Strâmba-Jiu","GJ115","ȘCOALA GENERALĂ STRÂMBA JIU",44.7597307400,23.3185736800,"UAT: ORAŞ TURCENI, Localitate: STRÂMBA-JIU, Artera: Strada Stoichiţă Roşianu, Nr: 194A"
542,"GJ","ŢIcleni","GJ116","GRĂDINIȚA NR. 2 TUNȘI",44.9022439100,23.4405533300,"UAT: ORAŞ ŢICLENI, Localitate: ŢICLENI, Nr: 256"
543,"GJ","ŢIcleni","GJ117","ȘCOALA GIMNAZIALĂ NR. 1 ȚICLENI",44.8845018200,23.3968786500,"UAT: ORAŞ ŢICLENI, Localitate: ŢICLENI, Nr: 686"
544,"GJ","ŢIcleni","GJ119","GRĂDINIȚA NR. 3 RĂȘINA",44.8717155100,23.3679045200,"UAT: ORAŞ ŢICLENI, Localitate: ŢICLENI"
545,"GJ","ŢIcleni","GJ118","ȘCOALA GIMNAZIALĂ NR. 1 ȚICLENI",44.8845018200,23.3968786500,"UAT: ORAŞ ŢICLENI, Localitate: ŢICLENI, Nr: 686"
546,"GJ","Albeni","GJ120","ȘCOALA GIMNAZIALĂ ALBENI",45.0238525200,23.6002117100,"UAT: ALBENI, Localitate: ALBENI"
547,"GJ","Albeni","GJ121","ȘCOALA PRIMARÂ ALBENI",45.0210671400,23.5744545300,"UAT: ALBENI, Localitate: ALBENI"
548,"GJ","Bolboceşti","GJ122","ȘCOALA PRIMARÂ BOLBOCEȘTI",45.0054132100,23.5895624100,"UAT: ALBENI, Localitate: BOLBOCEŞTI"
549,"GJ","Pruneşti","GJ123","ȘCOALA PRIMARÂ PRUNEȘTI",45.0191433500,23.6353458000,"UAT: ALBENI, Localitate: PRUNEŞTI"
550,"GJ","Alimpeşti","GJ124","ŞCOALA GENERALĂ ION LOTREANU  ALIMPEŞTI, SAT. ALIMPEŞTI,",45.0891287300,23.8021873400,"UAT: ALIMPEŞTI, Localitate: ALIMPEŞTI, Nr: 89"
551,"GJ","Alimpeşti","GJ125","ŞCOALA GENERALĂ SÎRBEŞTI , SAT.SÎRBEŞTI",45.1234445100,23.7961805300,"UAT: ALIMPEŞTI, Localitate: ALIMPEŞTI, Nr: 53"
552,"CL","Chirnogi","CL93","Scoala cu clasele I-VIII, nr.2",44.1063409300,26.5762243900,"UAT: CHIRNOGI, Localitate: CHIRNOGI, Nr: 73"
553,"CL","Chirnogi","CL94","Scoala cu clasele I-VIII, nr.2",44.1063409300,26.5762243900,"UAT: CHIRNOGI, Localitate: CHIRNOGI, Nr: 73"
554,"CL","Chirnogi","CL95","Scoala cu clasele I-VIII, nr.3",44.1144837300,26.5755302000,"UAT: CHIRNOGI, Localitate: CHIRNOGI, Nr: 35"
555,"CL","Frumuşani","CL137","Scoala Generala nr 1.Frumusani",44.2941135000,26.3146892300,"UAT: FRUMUŞANI, Localitate: FRUMUŞANI, Nr: 96"
556,"CL","Călăraşi","CL32","Şcoala gimnaziala T.Vladimirescu",44.2077071900,27.3145251400,"UAT: MUNICIPIUL CĂLĂRAŞI, Localitate: CĂLĂRAŞI, Artera: Strada Belşugului, Nr: 2"
557,"CL","Călăraşi","CL33","Şcoala gimnaziala T.Vladimirescu",44.2077071900,27.3145251400,"UAT: MUNICIPIUL CĂLĂRAŞI, Localitate: CĂLĂRAŞI, Artera: Strada Belşugului, Nr: 2"
558,"CL","Călăraşi","CL40","Gradinita cu program prelungit nr.9 Voinicel",44.2099347100,27.3030469900,"UAT: MUNICIPIUL CĂLĂRAŞI, Localitate: CĂLĂRAŞI, Artera: Strada Crângului (Strada Crîngului), Nr: 20"
559,"CL","Călăraşi","CL41","Gradinita cu program prelungit nr.9 Voinicel",44.2099347100,27.3030469900,"UAT: MUNICIPIUL CĂLĂRAŞI, Localitate: CĂLĂRAŞI, Artera: Strada Crângului (Strada Crîngului), Nr: 20"
560,"CL","Călăraşi","CL42","Grădiniţa cu pr.prelungit nr.5 Aricel Calarasi",44.1904612800,27.3393573100,"UAT: MUNICIPIUL CĂLĂRAŞI, Localitate: CĂLĂRAŞI, Artera: Strada Bucureşti, Nr: 227"
561,"CL","Călăraşi","CL43","Colegiul Economic sediul B",44.1915923800,27.3366115500,"UAT: MUNICIPIUL CĂLĂRAŞI, Localitate: CĂLĂRAŞI, Artera: Strada Griviţa, Nr: 188"
562,"CL","Călăraşi","CL44","Liceul Tehnologic Transporturi Auto Calarasi",44.1998337100,27.3368887600,"UAT: MUNICIPIUL CĂLĂRAŞI, Localitate: CĂLĂRAŞI, Artera: Strada Sloboziei, Nr: 2"
563,"CL","Călăraşi","CL51","Colegiul Economic sediu",44.1890201300,27.3366950100,"UAT: MUNICIPIUL CĂLĂRAŞI, Localitate: CĂLĂRAŞI, Artera: Strada 1 Decembrie 1918 (Strada Gheorghe Gheorghiu Dej), Nr: 98"
564,"CL","Călăraşi","CL45","Şcoala gimnaziala C-tin Brâncoveanu",44.1902482500,27.3448788600,"UAT: MUNICIPIUL CĂLĂRAŞI, Localitate: CĂLĂRAŞI, Artera: Strada Griviţa, Nr: 343"
565,"CL","Călăraşi","CL46","Şcoala gimnaziala C-tin Brâncoveanu",44.1902482500,27.3448788600,"UAT: MUNICIPIUL CĂLĂRAŞI, Localitate: CĂLĂRAŞI, Artera: Strada Griviţa, Nr: 343"
566,"CL","Călăraşi","CL47","Şcoala gimnaziala C-tin Brâncoveanu",44.1902482500,27.3448788600,"UAT: MUNICIPIUL CĂLĂRAŞI, Localitate: CĂLĂRAŞI, Artera: Strada Griviţa, Nr: 343"
567,"CL","Călăraşi","CL48","Şcoala primara nr.6",44.1848711900,27.3507756400,"UAT: MUNICIPIUL CĂLĂRAŞI, Localitate: CĂLĂRAŞI, Artera: Prelungirea Independenţa (Prelungirea 23 August), Nr: 20"
568,"BV","Vlădeni","BV333","Şcoala Generală sat Vlădeni",45.7670508300,25.3679944800,"UAT: DUMBRĂVIŢA, Localitate: VLĂDENI, Artera: Strada Calea Făgăraşului, Nr: 243"
569,"BV","Rotbav","BV337","CĂMINUL CULTURAL ROTBAV",45.8383465200,25.5562772900,"UAT: FELDIOARA, Localitate: ROTBAV, Nr: FN"
570,"BV","Fundata","BV339","Şcoala generală Fundata",45.4397758800,25.2913061600,"UAT: FUNDATA, Localitate: FUNDATA, Nr: 197"
571,"BV","ŞIrnea","BV340","Şcoala generală Şirnea",45.4717273600,25.2555120300,"UAT: FUNDATA, Localitate: ŞIRNEA, Nr: 45"
572,"BV","Feldioara","BV335","LICEUL TEORETIC PETRU RAREȘ FELDIOARA",45.8192334400,25.5957137300,"UAT: FELDIOARA, Localitate: FELDIOARA, Artera: Strada Octavian Goga, Nr: 57"
573,"BV","Feldioara","BV336","LICEUL TEORETIC PETRU RAREȘ FELDIOARA",45.8192334400,25.5957137300,"UAT: FELDIOARA, Localitate: FELDIOARA, Artera: Strada Octavian Goga, Nr: 57"
574,"BV","Feldioara","BV334","CĂMINUL CULTURAL FELDIOARA",45.8194215500,25.5933022500,"UAT: FELDIOARA, Localitate: FELDIOARA, Artera: Strada Octavian Goga"
575,"BV","Colonia Reconstrucţia","BV338","CĂMINUL CULTURAL RECONSTRUCŢIA",45.8275497000,25.5701180100,"UAT: FELDIOARA, Localitate: COLONIA RECONSTRUCŢIA"
576,"BV","Hălchiu","BV341","CĂMINUL CULTURAL",45.7612787000,25.5457586100,"UAT: HĂLCHIU, Localitate: HĂLCHIU, Nr: 2A"
577,"BV","Hălchiu","BV342","LOCAȚIA KREDENT",45.7612787000,25.5457586100,"UAT: HĂLCHIU, Localitate: HĂLCHIU, Nr: 2"
578,"BV","Satu Nou","BV343","Camin Cultural",45.7738666600,25.5118826800,"UAT: HĂLCHIU, Localitate: SATU NOU, Nr: 184"
579,"BV","Hărman","BV346","Scoala Gimnaziala Harman",45.7163526000,25.6839416100,"UAT: HĂRMAN, Localitate: HĂRMAN, Nr: 78"
580,"BV","Hărman","BV347","Scoala Gimnaziala Harman",45.7163526000,25.6839416100,"UAT: HĂRMAN, Localitate: HĂRMAN, Nr: 78"
581,"BV","Hărman","BV345","Scoala Gimnaziala Harman",45.7163526000,25.6839416100,"UAT: HĂRMAN, Localitate: HĂRMAN, Nr: 78"
582,"BV","Podu Oltului","BV344","Căminul cultural",45.7605160400,25.7217538200,"UAT: HĂRMAN, Localitate: PODU OLTULUI, Nr: 1157"
583,"BV","Hârseni","BV348","Şcoala Gimnazială Prof.Dr. Ioan Cerghit Hârseni",45.7546429000,25.0119047200,"UAT: HÂRSENI, Localitate: HÂRSENI, Nr: 154"
584,"BV","Copăcel","BV351","Grădinița Copăcel",45.7456368100,24.9927517300,"UAT: HÂRSENI, Localitate: COPĂCEL, Nr: 65-66"
585,"BV","Mărgineni","BV350","Grădinița Mărgineni",45.7320612000,25.0442239200,"UAT: HÂRSENI, Localitate: MĂRGINENI, Nr: 15"
586,"BV","Sebeş","BV349","Grădinița Sebeș",45.7260174800,25.0296417300,"UAT: HÂRSENI, Localitate: SEBEŞ, Nr: 47"
587,"BV","Hoghiz","BV352","Căminul Cultural Hoghiz",45.9856133700,25.3096500800,"UAT: HOGHIZ, Localitate: HOGHIZ, Nr: 232"
588,"AB","Aiudul De Sus","AB66","Şcoala Gimnazială Liviu Rebreanu Aiudul de Sus",46.3155123000,23.6888593100,"UAT: MUNICIPIUL AIUD, Localitate: AIUDUL DE SUS, Artera: Strada Gheorghe Lazăr, Nr: 17"
589,"AB","Ciumbrud","AB67","Liceul Tehnologic Agricol Alexandru Borza Ciumbrud",46.3053585000,23.7617325700,"UAT: MUNICIPIUL AIUD, Localitate: CIUMBRUD, Artera: Strada Vasile Lucaci, Nr: 42"
590,"AB","Straja","AB202","CLĂDIRE CĂMIN CULTURAL STRAJA",46.0681799900,23.6824993100,"UAT: BERGHIN, Localitate: STRAJA, Nr: 292A"
591,"AB","Cetatea De Baltă","AB224","CĂMIN CULTURAL",46.2478264900,24.1681364200,"UAT: CETATEA DE BALTĂ, Localitate: CETATEA DE BALTĂ, Nr: 28"
592,"AB","Cetatea De Baltă","AB225","CĂMIN CULTURAL",46.2478264900,24.1681364200,"UAT: CETATEA DE BALTĂ, Localitate: CETATEA DE BALTĂ, Nr: 28"
593,"AB","Gâmbaş","AB68","Fosta Şcoală Generală Gîmbaş",46.3477105600,23.7200509900,"UAT: MUNICIPIUL AIUD, Localitate: GÂMBAŞ, Artera: Strada Baba Novac, Nr: 9"
594,"AB","Gârbova De Jos","AB69","Şcoala Primară Gîrbova de Jos",46.2546008500,23.6754224200,"UAT: MUNICIPIUL AIUD, Localitate: GÂRBOVA DE JOS, Artera: Strada Gheorghe Asachi, Nr: 24"
595,"AB","Gârbova De Sus","AB70","Fosta Şcoală Generală Gîrbova de Sus",46.2926453900,23.6227488300,"UAT: MUNICIPIUL AIUD, Localitate: GÂRBOVA DE SUS, Artera: Strada Gruişoarei, Nr: 2"
596,"AB","Măgina","AB72","Grădiniţa cu Program Normal Măgina",46.3406581400,23.6504425700,"UAT: MUNICIPIUL AIUD, Localitate: MĂGINA, Artera: Strada Pandurilor, Nr: 50"
597,"AB","Păgida","AB73","Căminul Cultural Păgida",46.3403459900,23.7415003300,"UAT: MUNICIPIUL AIUD, Localitate: PĂGIDA, Artera: Strada Dealului, Nr: 12"
598,"AB","Sâncrai","AB74","Sala de festivităţi din Sîncrai",46.2916008000,23.7515287700,"UAT: MUNICIPIUL AIUD, Localitate: SÂNCRAI, Artera: Strada Ciocîrliei, Nr: 8"
599,"AB","Blaj","AB77","Baza de Agrement a municipiului Blaj",46.1732983000,23.9181133000,"UAT: MUNICIPIUL BLAJ, Localitate: BLAJ, Artera: Strada Iuliu Maniu (Strada 23 August), Nr: 42A"
600,"AB","Blaj","AB78","AŞEZĂMÂNTUL SOCIAL - GRĂDINIŢA SFÂNTA IRINA",46.1756857000,23.9106870000,"UAT: MUNICIPIUL BLAJ, Localitate: BLAJ, Artera: Strada Eroilor, Nr: 36 A"
601,"AB","Blaj","AB79","Şcoala Gimnazială Toma Cocişiu Blaj",46.1770943200,23.9179815600,"UAT: MUNICIPIUL BLAJ, Localitate: BLAJ, Artera: Bulevardul Republicii, Nr: 48"
602,"AB","Blaj","AB80","Centrul Cultural Iacob Mureşianu’’",46.1773185600,23.9199238700,"UAT: MUNICIPIUL BLAJ, Localitate: BLAJ, Artera: Bulevardul Republicii, Nr: 36"
603,"AB","Blaj","AB87","Şcoala Gimnazială Ion Micu Moldovan Blaj",46.1697899900,23.9069004500,"UAT: MUNICIPIUL BLAJ, Localitate: BLAJ, Artera: Strada Păcii, Nr: 144"
604,"AB","Blaj","AB88","Grădiniţa cu program normal Izvoarele Blaj",46.1705403100,23.9102376700,"UAT: MUNICIPIUL BLAJ, Localitate: BLAJ, Artera: Strada Păcii, Nr: 81"
605,"GL","Furcenii Vechi","GL273","CAMIN CULTURAL din sat Furcenii Vechi",45.8356718600,27.3270568200,"UAT: COSMEŞTI, Localitate: FURCENII VECHI"
606,"GL","Cuca","GL277","Căminul Cultural Cuca",45.7331870700,27.8912303800,"UAT: CUCA, Localitate: CUCA"
607,"GL","Cuca","GL278","Şcoala generală Cuca",45.7366554400,27.8903844200,"UAT: CUCA, Localitate: CUCA"
608,"DJ","Dăbuleni","DJ208","Liceul Teoretic Constantin Brancoveanu (fosta Scoala nr. 3, intrare elevi)",43.7995775900,24.0781937200,"UAT: ORAŞ DĂBULENI, Localitate: DĂBULENI, Artera: Strada Victoriei, Nr: 84"
609,"DJ","Dăbuleni","DJ206","SCOALA GIMNAZIALA CU CLASELE I-VIII NR.1 DABULENI, SUD",43.7995961000,24.0947295100,"UAT: ORAŞ DĂBULENI, Localitate: DĂBULENI, Artera: Strada Dunării, Nr: 2"
610,"DJ","Dăbuleni","DJ207","Liceul Teoretic Constantin Brancoveanu",43.8021017300,24.0835073400,"UAT: ORAŞ DĂBULENI, Localitate: DĂBULENI, Artera: Strada Marin Preda, Nr: 4"
611,"DJ","Dăbuleni","DJ203","Structura Scolii Gimnaziale nr. 1 Dabuleni",43.7980426900,24.1084426900,"UAT: ORAŞ DĂBULENI, Localitate: DĂBULENI, Artera: Strada Unirii, Nr: 120"
612,"DJ","Filiaşi","DJ215","PRIMĂRIA ORAŞULUI FILIAŞI",44.5545271400,23.5206788200,"UAT: ORAŞ FILIAŞI, Localitate: FILIAŞI, Artera: Bulevardul Racoţeanu (Strada V. I. Lenin), Nr: 160"
613,"DJ","Filiaşi","DJ214","LICEUL TEHNOLOGIC DIMITRIE FILIŞANU",44.5558894200,23.5158541800,"UAT: ORAŞ FILIAŞI, Localitate: FILIAŞI, Artera: Bulevardul Racoţeanu (Strada V. I. Lenin), Nr: 178"
614,"DJ","Filiaşi","DJ212","GRĂDINIŢA NR. 2 FILIAŞI",44.5555276600,23.5122487400,"UAT: ORAŞ FILIAŞI, Localitate: FILIAŞI, Artera: Strada Gării, Nr: 2"
615,"DJ","Filiaşi","DJ210","CORP 2 PRIMĂRIE",44.5552020000,23.5209860000,"UAT: ORAŞ FILIAŞI, Localitate: FILIAŞI, Artera: Strada Stadionului, Nr: 2 A"
616,"DJ","Filiaşi","DJ211","GRĂDINIŢA NR. 1 FILIAŞI",44.5513171700,23.5236957600,"UAT: ORAŞ FILIAŞI, Localitate: FILIAŞI, Artera: Strada Tudor Vladimirescu, Nr: 4H"
617,"DJ","Filiaşi","DJ216","ŞCOALA GIMNAZIALĂ FILIAŞI",44.5535245700,23.5227707300,"UAT: ORAŞ FILIAŞI, Localitate: FILIAŞI, Artera: Bulevardul Racoţeanu (Strada V. I. Lenin), Nr: 148"
618,"DJ","Filiaşi","DJ213","GRĂDINIŢA NR. 3 FILIAŞI",44.5522395000,23.5226849000,"UAT: ORAŞ FILIAŞI, Localitate: FILIAŞI, Artera: Strada Nicolae Bălcescu, Nr: 2"
619,"DJ","Bâlta","DJ217","ŞCOALA BÎLTA",44.5347747700,23.4691331700,"UAT: ORAŞ FILIAŞI, Localitate: BÂLTA, Artera: Strada Pandurilor, Nr: 218"
620,"DJ","Fratoştiţa","DJ218","SCOALA GIMNAZIALĂ FRATOŞTIŢA - CORP 1",44.5872138800,23.5701816200,"UAT: ORAŞ FILIAŞI, Localitate: FRATOŞTIŢA, Artera: Strada Valea Bisericii, Nr: 8"
621,"DJ","Fratoştiţa","DJ219","ŞCOALA GIMNAZIALĂ FRATOŞTITA - CORP 2",44.5872138800,23.5701816200,"UAT: ORAŞ FILIAŞI, Localitate: FRATOŞTIŢA, Artera: Strada Valea Bisericii, Nr: 8"
622,"CT","Băneasa","CT374","ȘCOALA GENERALĂ NR 1 BĂNEASA",44.0686699300,27.6935849000,"UAT: BĂNEASA, Localitate: BĂNEASA, Artera: Strada Trandafirilor, Nr: 79"
623,"CT","Lumina","CT472","ȘCOALA NOUĂ LUMINA",44.2935231600,28.5643246300,"UAT: LUMINA, Localitate: LUMINA, Artera: Strada Pelican, Nr: 10"
624,"CT","Lumina","CT473","GRĂDINIȚA LUMINA",44.2942359400,28.5647913600,"UAT: LUMINA, Localitate: LUMINA, Artera: Strada Pelican, Nr: 10"
625,"CT","Lumina","CT474","CĂMINUL CULTURAL LUMINA",44.2937950700,28.5656910400,"UAT: LUMINA, Localitate: LUMINA, Artera: Strada Mare, Nr: 173"
626,"CT","Băneasa","CT375","LICEUL TEORETIC BĂNEASA",44.0662844900,27.6970543600,"UAT: BĂNEASA, Localitate: BĂNEASA, Artera: Strada Trandafirilor, Nr: 95"
627,"CT","Cernavodă","CT274","Şcoala Gimnazială nr. 1",44.3502217200,28.0330106300,"UAT: ORAŞ CERNAVODĂ, Localitate: CERNAVODĂ, Artera: Strada Salciei, Nr: 1"
628,"CT","Cernavodă","CT275","Şcoala Gimnazială nr. 1",44.3502217200,28.0330106300,"UAT: ORAŞ CERNAVODĂ, Localitate: CERNAVODĂ, Artera: Strada Salciei, Nr: 1"
629,"CT","Cernavodă","CT276","Grădiniţa cu program prelungit Panseluţa",44.3500102900,28.0327192800,"UAT: ORAŞ CERNAVODĂ, Localitate: CERNAVODĂ, Artera: Strada Salciei, Nr: 6"
630,"CT","Cernavodă","CT277","Şcoala Gimnazială nr. 2",44.3423636800,28.0388805300,"UAT: ORAŞ CERNAVODĂ, Localitate: CERNAVODĂ, Artera: Strada Mihail Sadoveanu, Nr: 9"
631,"CT","Cernavodă","CT278","Liceul Teoretic Anghel Saligny",44.3408676700,28.0324552200,"UAT: ORAŞ CERNAVODĂ, Localitate: CERNAVODĂ, Nr: 24-26"
632,"CT","Cernavodă","CT279","Liceul Teoretic Anghel Saligny",44.3408676700,28.0324552200,"UAT: ORAŞ CERNAVODĂ, Localitate: CERNAVODĂ, Nr: 24-26"
633,"CT","Cernavodă","CT280","Grădiniţa cu program prelungit nr. 4",44.3391153100,28.0406910600,"UAT: ORAŞ CERNAVODĂ, Localitate: CERNAVODĂ, Artera: Strada Tudor Vladimirescu, Nr: 12"
634,"CT","Cernavodă","CT281","Creşa din strada Tudor Vladimirescu",44.3389978700,28.0406173900,"UAT: ORAŞ CERNAVODĂ, Localitate: CERNAVODĂ, Artera: Strada Tudor Vladimirescu, Nr: 12"
635,"CT","Cernavodă","CT282","Liceul Tehnologic Axiopolis Cernavodă",44.3343925900,28.0377516100,"UAT: ORAŞ CERNAVODĂ, Localitate: CERNAVODĂ, Artera: Strada Cazărmii, Nr: 6"
636,"CT","Cernavodă","CT283","Liceul Tehnologic Axiopolis Cernavodă",44.3339124400,28.0375195200,"UAT: ORAŞ CERNAVODĂ, Localitate: CERNAVODĂ, Artera: Strada Cazărmii, Nr: 6"
637,"CT","Cernavodă","CT284","Şcoala Gimnazială Mircea Eliade",44.3351530400,28.0375325800,"UAT: ORAŞ CERNAVODĂ, Localitate: CERNAVODĂ, Artera: Strada Cazărmii, Nr: 6"
638,"CT","Eforie Sud","CT285","LICEUL CARMEN SILVA EFORIE SUD",44.0202091100,28.6528410200,"UAT: ORAŞ EFORIE, Localitate: EFORIE SUD, Artera: Strada Negru Vodă, Nr: 102"
639,"CL","Călăraşi","CL49","Şcoala primara nr.6",44.1848711900,27.3507756400,"UAT: MUNICIPIUL CĂLĂRAŞI, Localitate: CĂLĂRAŞI, Artera: Prelungirea Independenţa (Prelungirea 23 August), Nr: 20"
640,"CL","Frumuşani","CL136","Scoala Generala nr 1.Frumusani",44.2941135000,26.3146892300,"UAT: FRUMUŞANI, Localitate: FRUMUŞANI"
641,"CL","Orăşti","CL138","Scoala Generala Orăști",44.3192333000,26.2829090300,"UAT: FRUMUŞANI, Localitate: ORĂŞTI, Nr: 41"
642,"CL","Orăşti","CL139","Scoala Generala Orasti",44.3192333000,26.2829090300,"UAT: FRUMUŞANI, Localitate: ORĂŞTI, Nr: 41"
